     2.01           OBSERVATION DATA    G                   RINEX VERSION / TYPE
Gnsser              GeoSolution         20180718 175725 UTC PGM / RUN BY / DATE
Built by Gnsser. www.gnsser.com, gnsser@163.com             COMMENT
Gnsser, a GNSS data processing software, created in China   COMMENT
CONCATENATED OBSERVATION FILES                              COMMENT
sbf2rin-10.2.0                          01-JAN-18 01:01     COMMENT
Approx XYZ updated with igs18P19821_all_CoordOnly.snx 2018-0COMMENT
HERS                                                        MARKER NAME
13212M007                                                   MARKER NUMBER
                                                            OBSERVER / AGENCY
2001062             SEPT POLARX3ETR     2.1                 REC # / TYPE / VERS
10250002            LEIAR25.R3      NONE                    ANT # / TYPE
Built by Gnsser. www.gnsser.com, gnsser@163.com             COMMENT
Gnsser, a GNSS data processing software, created in China   COMMENT
Approx XYZ updated with igs18P19821_all_CoordOnly.snx 2018-0COMMENT
  4033469.9276    23673.1031  4924301.4359                  APPROX POSITION XYZ
        0.0096        0.0000        0.0000                  ANTENNA: DELTA H/E/N
     4    L1    L2    P2    P1                              # / TYPES OF OBSERV
    30.000                                                  INTERVAL
  2018     1     1     0     0    0.0000000                 TIME OF FIRST OBS
  2018     1     1    23    59   30.0000000                 TIME OF LAST OBS
     0                                                      LEAP SECONDS
                                                            END OF HEADER
 18 01 01 00 00 00.0000000  0  9G05G16G20G21G25G26G27G29G31          0.000000000
 126821078.928 7  98821607.305 4  24133241.235 4  24133243.234 4
 116900152.774 7  91091000.900 5  22245354.806 5  22245357.132 5
 123575347.211 7  96292473.119 4  23515602.814 4  23515604.124 4
 112671531.000 8  87795990.562 6  21440674.866 6  21440676.373 6
 126972542.890 7  98939647.575 4  24162070.846 4  24162069.988 4
 108853390.952 8  84820827.257 6  20714108.989 6  20714107.515 6
 127667374.875 6  99481067.449 3  24294292.486 3  24294290.729 3
 114400007.364 8  89142871.711 6  21769591.274 6  21769593.076 6
 116097244.159 8  90465369.748 6  22092570.021 6  22092572.240 6
 18 01 01 00 00 30.0000000  0  9G05G16G20G21G25G26G27G29G31          0.000000000
 126830555.368 7  98828991.553 4  24135044.171 4  24135046.036 4
 116814814.888 7  91024503.841 5  22229116.185 5  22229117.451 5
 123507992.521 7  96239988.966 4  23502786.289 4  23502787.325 4
 112635987.930 8  87768294.676 6  21433911.139 6  21433912.842 6
 127076401.496 7  99020576.362 4  24181835.440 4  24181833.337 4
 108813554.871 8  84789786.164 6  20706528.314 6  20706526.899 6
 127565944.605 6  99402030.931 3  24274990.678 3  24274988.662 3
 114478344.694 8  89203913.778 6  21784498.689 6  21784500.345 6
 116177705.433 8  90528066.840 6  22107880.874 6  22107883.634 6
 18 01 01 00 01 00.0000000  0  9G05G16G20G21G25G26G27G29G31          0.000000000
 126840615.468 7  98836830.611 4  24136958.303 4  24136961.195 4
 116729708.989 7  90958187.566 5  22212921.068 5  22212922.582 5
 123441014.974 7  96187798.658 4  23490040.761 4  23490042.052 4
 112600914.103 8  87740964.428 6  21427236.871 6  21427238.636 6
 127180395.792 7  99101610.840 4  24201625.218 4  24201623.128 4
 108774131.877 8  84759066.939 7  20699026.264 7  20699024.903 7
 127464627.045 6  99323082.238 3  24255710.423 3  24255708.648 3
 114556907.010 8  89265131.145 6  21799448.763 6  21799450.091 6
 116258546.700 8  90591060.039 6  22123264.486 6  22123266.685 6
 18 01 01 00 01 30.0000000  0 10G05G16G18G20G21G25G26G27G29G31       0.000000000
 126851259.233 7  98845124.471 4  24138983.912 4  24138986.467 4
 116644836.503 7  90892053.159 5  22196769.956 5  22196772.051 5
 133600302.628 6 104104125.43811  25423290.075 1  25423291.800 1
 123374417.488 7  96135904.535 4  23477367.999 4  23477368.699 4
 112566309.371 8  87713999.706 6  21420651.709 6  21420653.548 6
 127284524.500 7  99182750.085 4  24221439.393 4  24221437.881 4
 108735123.399 8  84728670.713 6  20691603.326 6  20691602.007 6
 127363423.172 6  99244222.134 3  24236452.030 3  24236449.888 3
 114635692.732 8  89326522.601 6  21814440.933 6  21814442.779 6
 116339765.276 8  90654347.210 6  22138719.960 6  22138722.285 6
 18 01 01 00 02 00.0000000  0  9G05G16G20G21G25G26G27G29G31          0.000000000
 126862486.611 7  98853873.103 4  24141120.131 4  24141122.814 4
 116560199.623 7  90826102.341 5  22180663.776 5  22180666.208 5
 123308202.560 7  96084308.492 4  23464767.607 4  23464768.347 4
 112532174.364 8  87687401.009 6  21414156.029 6  21414157.758 6
 127388786.444 7  99263993.150 4  24241280.050 4  24241278.716 4
 108696530.855 8  84698598.600 7  20684259.549 7  20684258.182 7
 127262333.966 6  99165451.350 3  24217214.886 3  24217213.626 3
 114714700.108 8  89388086.787 6  21829475.498 6  21829477.452 6
 116421359.017 8  90717926.725 6  22154246.825 6  22154249.532 6
 18 01 01 00 02 30.0000000  0 10G05G16G18G20G21G25G26G27G29G31       0.000000000
 126874297.323 7  98863076.246 4  24143368.213 4  24143370.259 4
 116475799.621 7  90760336.109 5  22164603.228 5  22164605.453 5
 133426187.77416 103968448.90811  25390156.979 1  25390158.744 1
 123242373.031 7  96033012.789 4  23452240.186 4  23452241.557 4
 112498509.857 8  87661168.941 6  21407749.830 6  21407751.709 6
 127493180.359 7  99345339.030 4  24261145.752 4  24261144.263 4
 108658355.724 8  84668851.748 7  20676995.148 7  20676993.256 7
 127161360.421 6  99086770.749 3  24198000.744 3  24197999.137 3
 114793927.562 8  89449822.453 6  21844552.119 6  21844553.996 6
 116503325.463 8  90781796.675 6  22169844.613 6  22169847.047 6
 18 01 01 00 03 00.0000000  0 10G05G16G18G20G21G25G26G27G29G31       0.000000000
 126886691.683 7  98872734.203 4  24145726.587 4  24145728.695 4
 116391638.446 7  90694755.991 5  22148588.080 5  22148590.140 5
 133339017.735 6 103900524.108 2  25373568.463 2  25373571.203 2
 123176931.707 7  95982019.551 4  23439787.513 4  23439788.339 4
 112465316.265 8  87635303.810 6  21401433.337 6  21401435.096 6
 127597704.961 7  99426786.771 4  24281036.276 4  24281034.459 4
 108620599.415 8  84639431.251 6  20669810.314 6  20669808.697 6
 127060503.496 6  99008180.997 4  24178808.044 4  24178807.357 4
 114873373.728 8  89511728.556 6  21859670.107 6  21859672.048 6
 116585662.265 8  90845955.224 6  22185513.076 6  22185514.883 6
 18 01 01 00 03 30.0000000  0 10G05G16G18G20G21G25G26G27G29G31       0.000000000
 126899669.265 7  98882846.616 4  24148195.785 4  24148198.169 4
 116307717.905 7  90629363.356 5  22132618.186 5  22132620.549 5
 133251773.820 5 103832541.945 1  25356966.607 1  25356968.641 1
 123111881.253 7  95931330.892 4  23427408.559 4  23427409.271 4
 112432594.355 8  87609806.225 6  21395206.567 6  21395208.506 6
 127702359.092 7  99508335.433 4  24300950.986 4  24300949.671 4
 108583263.401 8  84610338.254 7  20662705.487 7  20662704.179 7
 126959764.049 6  98929682.767 3  24159637.764 3  24159636.398 3
 114953037.184 8  89573803.972 6  21874829.409 6  21874831.179 6
 116668366.842 8  90910400.311 6  22201250.849 6  22201253.191 6
 18 01 01 00 04 00.0000000  0 10G05G16G18G20G21G25G26G27G29G31       0.000000000
 126913229.811 7  98893413.287 4  24150776.421 4  24150778.635 4
 116224039.850 7  90564159.688 5  22116694.295 5  22116697.076 5
 133164459.324 6 103764504.722 2  25340351.350 2  25340353.587 2
 123047224.194 7  95880948.765 4  23415105.015 4  23415105.648 4
 112400344.080 8  87584676.146 6  21389069.390 6  21389071.198 6
 127807141.464 7  99589983.996 4  24320890.394 4  24320888.867 4
 108546349.111 8  84581573.860 7  20655681.033 7  20655679.472 7
 126859143.147 6  98851276.933 4  24140490.625 4  24140489.731 4
 115032916.236 8  89636047.375 6  21890029.858 6  21890031.860 6
 116751436.781 8  90975130.131 6  22217058.508 6  22217060.702 6
 18 01 01 00 04 30.0000000  0 10G05G16G18G20G21G25G26G27G29G31       0.000000000
 126927373.106 7  98904434.043 4  24153467.752 4  24153470.760 4
 116140606.131 8  90499146.405 5  22100817.553 5  22100820.288 5
 133077075.938 5 103696413.603 1  25323722.915 1  25323723.759 1
 122982963.261 7  95830875.308 4  23402876.791 4  23402877.524 4
 112368566.483 8  87559914.384 6  21383022.232 6  21383024.328 6
 127912050.814 7  99671731.525 4  24340854.521 4  24340852.464 4
 108509857.932 8  84553139.170 7  20648736.939 7  20648735.134 7
 126758641.731 6  98772964.169 4  24121365.643 4  24121363.880 4
 115113008.721 8  89698457.084 6  21905270.878 6  21905272.782 6
 116834869.671 8  91040142.757 6  22232935.129 6  22232937.312 6
 18 01 01 00 05 00.0000000  0 10G05G16G18G20G21G25G26G27G29G31       0.000000000
 126942098.858 7  98915908.671 4  24156269.984 4  24156272.996 4
 116057418.473 7  90434324.857 5  22084987.951 5  22084989.942 5
 132989626.759 6 103628271.506 3  25307081.821 3  25307084.473 3
 122919101.536 7  95781112.929 4  23390723.860 4  23390725.112 4
 112337261.937 8  87535521.236 6  21377065.257 6  21377067.171 6
 128017085.925 7  99753577.045 4  24360841.940 4  24360839.700 4
 108473791.243 8  84525035.259 6  20641873.499 6  20641871.927 6
 126658260.723 6  98694745.290 4  24102263.395 4  24102262.715 4
 115193314.564 8  89761033.075 6  21920553.274 6  21920554.505 6
 116918663.282 8  91105436.476 6  22248880.502 6  22248883.241 6
 18 01 01 00 05 30.0000000  0 10G05G16G18G20G21G25G26G27G29G31       0.000000000
 126957406.916 7  98927837.039 4  24159182.826 4  24159185.972 4
 115974478.798 7  90369696.547 5  22069204.769 5  22069207.037 5
 132902114.060 6 103560079.863 2  25290429.087 2  25290430.200 2
 122855641.250 7  95731663.357 4  23378647.447 4  23378649.236 4
 112306431.307 8  87511497.378 6  21371198.591 6  21371200.095 6
 128122245.493 7  99835519.576 4  24380852.407 4  24380851.111 4
 108438150.531 8  84497263.283 6  20635091.170 6  20635089.839 6
 126558001.187 6  98616621.014 4  24083185.105 4  24083183.124 4
 115273831.638 8  89823773.624 6  21935875.132 6  21935876.393 6
 117002814.915 8  91171009.179 6  22264894.402 6  22264896.349 6
 18 01 01 00 06 00.0000000  0 10G05G16G18G20G21G25G26G27G29G31       0.000000000
 126973297.102 7  98940218.997 4  24162206.671 4  24162208.524 4
 115891788.712 7  90305262.711 5  22053469.728 5  22053471.688 5
 132814539.462 6 103491839.798 1  25273764.145 1  25273766.033 1
 122792585.431 7  95682528.958 4  23366648.912 4  23366650.114 4
 112276074.453 8  87487842.694 6  21365421.889 6  21365423.589 6
 128227528.291 7  99917558.080 4  24400886.886 4  24400886.325 4
 108402937.174 8  84469824.288 7  20628390.426 7  20628389.085 7
 126457863.954 7  98538592.021 4  24064129.277 4  24064128.010 4
 115354558.393 8  89886677.575 6  21951236.556 6  21951238.143 6
 117087322.199 8  91236858.980 6  22280975.854 6  22280977.979 6
 18 01 01 00 06 30.0000000  0 10G05G16G18G20G21G25G26G27G29G31       0.000000000
 126989768.667 7  98953054.006 4  24165341.677 4  24165343.308 4
 115809350.069 7  90241024.802 5  22037781.783 5  22037784.086 5
 132726905.372 5 103423553.540 1  25257087.833 1  25257087.902 1
 122729936.381 7  95633711.509 4  23354726.820 4  23354727.946 4
 112246191.455 8  87464557.244 6  21359735.264 6  21359737.008 6
 128332933.053 7  99999691.661 4  24420945.198 4  24420944.140 4
 108368152.540 8  84442719.376 7  20621771.190 7  20621769.776 7
 126357850.029 6  98460659.150 4  24045097.005 4  24045095.672 4
 115435493.427 8  89949743.817 6  21966638.022 6  21966639.600 6
 117172182.473 8  91302983.877 6  22297124.328 6  22297126.087 6
 18 01 01 00 07 00.0000000  0 10G05G16G18G20G21G25G26G27G29G31       0.000000000
 127006821.804 7  98966342.177 4  24168586.228 4  24168588.417 4
 115727164.641 7  90176984.211 5  22022142.498 5  22022144.697 5
 132639214.526 6 103355222.974 2  25240400.887 2  25240403.043 2
 122667696.641 7  95585213.020 4  23342882.507 4  23342884.255 4
 112216783.102 8  87441641.654 6  21354138.962 6  21354140.637 6
 128438458.580 7 100081919.318 4  24441026.531 4  24441024.620 4
 108333798.054 8  84415949.649 7  20615233.879 7  20615232.278 7
 126257960.432 6  98382823.150 4  24026089.188 4  24026087.725 4
 115516635.064 8  90012971.065 6  21982078.629 6  21982080.198 6
 117257393.392 8  91369381.984 6  22313339.129 6  22313341.177 6
 18 01 01 00 07 30.0000000  0 10G05G16G18G20G21G25G26G27G29G31       0.000000000
 127024455.724 7  98980082.914 4  24171941.751 4  24171944.419 4
 115645234.420 7  90113142.498 5  22006552.011 5  22006553.842 5
 132551469.278 5 103286849.990 2  25223703.249 2  25223705.021 2
 122605869.083 7  95537035.737 4  23331116.930 4  23331118.902 4
 112187850.024 8  87419096.399 6  21348633.174 6  21348634.950 6
 128544103.573 7 100164240.061 4  24461130.570 4  24461128.294 4
 108299875.066 8  84389516.156 7  20608778.632 7  20608776.763 7
 126158196.016 7  98305084.686 4  24007103.801 4  24007103.057 4
 115597982.007 8  90076358.287 6  21997558.434 6  21997560.312 6
 117342952.455 8  91436051.366 6  22329620.311 6  22329622.802 6
 18 01 01 00 08 00.0000000  0 10G05G16G18G20G21G25G26G27G29G31       0.000000000
 127042670.414 7  98994276.201 4  24175408.220 4  24175410.434 4
 115563560.860 7  90049500.754 5  21991010.024 5  21991012.275 5
 132463671.662 6 103218436.364 1  25206996.046 1  25206997.329 1
 122544456.558 7  95489181.818 4  23319431.337 4  23319432.045 4
 112159392.331 8  87396921.579 6  21343217.927 6  21343219.550 6
 128649866.733 7 100246652.915 4  24481255.877 4  24481254.707 4
 108266384.981 8  84363419.979 7  20602405.765 7  20602403.922 7
 126058557.861 7  98227444.629 4  23988143.858 4  23988142.427 4
 115679532.624 8  90139904.214 6  22013077.007 6  22013079.174 6
 117428857.281 8  91502990.185 6  22345967.172 6  22345970.187 6
 18 01 01 00 08 30.0000000  0 10G05G16G18G20G21G25G26G27G29G31       0.000000000
 127061465.057 7  99008921.352 4  24178984.566 4  24178987.064 4
 115482146.302 7  89986060.850 5  21975517.287 5  21975519.342 5
 132375823.838 6 103149983.372 1  25190278.966 1  25190281.072 1
 122483461.628 7  95441653.301 4  23307824.337 4  23307825.630 4
 112131410.305 8  87375117.402 6  21337893.253 6  21337894.794 6
 128755746.850 7 100329156.876 4  24501404.324 4  24501402.782 4
 108233329.136 8  84337662.180 7  20596115.327 7  20596113.324 7
 125959046.797 6  98149903.575 4  23969207.462 4  23969206.001 4
 115761285.518 8  90203607.758 6  22028634.471 6  22028635.955 6
 117515105.049 8  91570196.246 6  22362379.574 6  22362382.103 6
 18 01 01 00 09 00.0000000  0 10G05G16G18G20G21G25G26G27G29G31       0.000000000
 127080839.260 7  99024018.160 4  24182671.423 4  24182673.811 4
 115400992.119 7  89922823.831 5  21960073.734 5  21960076.068 5
 132287929.454 5 103081494.288 2  25173553.362 2  25173553.906 2
 122422886.043 7  95394451.548 4  23296297.152 4  23296298.484 4
 112103904.794 8  87353684.546 6  21332659.116 6  21332660.429 6
 128861742.641 7 100411750.991 4  24521574.709 4  24521573.190 4
 108200708.912 8  84312243.821 7  20589907.736 7  20589906.009 7
 125859663.801 6  98072462.394 4  23950295.432 4  23950294.070 4
 115843239.206 8  90267467.742 6  22044229.331 6  22044231.364 6
 117601693.286 8  91637667.575 6  22378856.886 6  22378859.497 6
 18 01 01 00 09 30.0000000  0 10G05G16G18G20G21G25G26G27G29G31       0.000000000
 127100792.993 7  99039566.555 4  24186468.604 4  24186470.713 4
 115320100.428 7  89859791.349 5  21944680.871 5  21944683.069 5
 132199990.351 6 103012970.463 2  25156819.147 2  25156820.451 2
 122362733.305 7  95347579.298 4  23284850.482 4  23284851.497 4
 112076875.973 8  87332623.147 6  21327515.784 6  21327517.368 6
 128967852.829 7 100494434.259 4  24541767.004 4  24541764.816 4
 108168525.667 8  84287165.965 7  20583783.388 7  20583781.831 7
 125760409.776 7  97995121.632 4  23931407.732 4  23931406.219 4
 115925392.363 8  90331483.191 6  22059862.686 6  22059864.470 6
 117688619.986 8  91705402.661 6  22395398.652 6  22395401.011 6
 18 01 01 00 10 00.0000000  0 10G05G16G18G20G21G25G26G27G29G31       0.000000000
 127121325.568 7  99055565.943 4  24190376.015 4  24190377.993 4
 115239472.910 7  89796964.720 5  21929338.273 5  21929340.082 5
 132112008.737 6 102944413.198 2  25140076.448 2  25140078.176 2
 122303005.789 7  95301038.380 4  23273484.735 4  23273485.663 4
 112050323.374 8  87311932.808 6  21322462.766 6  21322464.403 6
 129074076.154 7 100577205.656 4  24561980.661 4  24561979.018 4
 108136780.717 8  84262429.639 7  20577742.620 7  20577741.102 7
 125661285.799 6  97917882.220 4  23912544.679 4  23912544.153 4
 116007743.701 8  90395653.047 6  22075534.123 6  22075535.604 6
 117775882.298 8  91773399.246 6  22412004.224 6  22412006.419 6
 18 01 01 00 10 30.0000000  0 10G05G16G18G20G21G25G26G27G29G31       0.000000000
 127142436.596 7  99072016.083 4  24194392.552 4  24194395.354 4
 115159111.393 7  89734345.366 5  21914046.044 5  21914047.672 5
 132023987.333 6 102875825.095 2  25123326.850 2  25123328.086 2
 122243705.976 7  95254830.724 4  23262200.033 4  23262201.433 4
 112024248.007 8  87291614.346 6  21317500.709 6  21317502.779 6
 129180411.362 7 100660064.272 4  24582215.460 4  24582213.335 4
 108105475.447 8  84238035.928 7  20571785.484 7  20571783.769 7
 125562292.754 7  97840744.863 4  23893706.838 4  23893705.929 4
 116090291.272 8  90459975.819 6  22091242.155 6  22091243.957 6
 117863477.472 8  91841655.218 6  22428673.167 6  22428674.895 6
 18 01 01 00 11 00.0000000  0 10G05G16G18G20G21G25G26G27G29G31       0.000000000
 127164125.168 7  99088916.303 4  24198519.944 4  24198522.708 4
 115079017.592 8  89671934.612 5  21898804.290 5  21898806.358 5
 131935928.348 6 102807207.627 2  25106569.610 2  25106570.384 2
 122184836.194 7  95208958.178 4  23250997.952 4  23250998.665 4
 111998650.317 8  87271668.100 6  21312629.614 6  21312631.308 6
 129286857.169 7 100743009.050 4  24602471.101 4  24602469.681 4
 108074611.169 8  84213985.836 7  20565912.097 7  20565910.534 7
 125463431.610 7  97763710.219 4  23874894.257 4  23874893.781 4
 116173033.969 8  90524450.631 6  22106987.484 6  22106989.271 6
 117951403.217 8  91910168.766 6  22445404.544 6  22445406.938 6
 18 01 01 00 11 30.0000000  0 10G05G16G18G20G21G25G26G27G29G31       0.000000000
 127186390.775 7  99106266.164 4  24202757.339 4  24202759.352 4
 114999193.376 8  89609733.920 5  21883614.229 5  21883616.584 5
 131847834.348 6 102738563.130 3  25089806.713 3  25089807.592 3
 122126399.307 7  95163422.954 4  23239878.399 4  23239878.708 4
 111973530.362 8  87252094.118 6  21307849.512 6  21307851.208 6
 129393412.232 7 100826038.946 4  24622749.032 4  24622746.886 4
 108044189.211 8  84190280.401 7  20560122.969 7  20560121.488 7
 125364703.179 7  97686778.981 4  23856107.280 4  23856106.316 4
 116255970.176 8  90589076.250 6  22122769.727 6  22122771.400 6
 118039656.782 8  91978937.765 6  22462198.442 6  22462201.088 6
 18 01 01 00 12 00.0000000  0 10G05G16G18G20G21G25G26G27G29G31       0.000000000
 127209233.068 7  99124065.345 4  24207103.684 4  24207106.085 4
 114919640.723 7  89547744.826 5  21868475.779 5  21868478.230 5
 131759707.451 6 102669892.779 2  25073036.658 2  25073037.495 2
 122068397.631 7  95118226.850 4  23228839.966 4  23228841.326 4
 111948888.083 8  87232892.347 6  21303160.439 6  21303161.711 6
 129500075.328 7 100909153.039 4  24643044.726 4  24643043.773 4
 108014210.872 8  84166920.659 7  20554418.399 7  20554416.717 7
 125266108.510 7  97609951.959 4  23837345.452 4  23837343.911 4
 116339098.825 8  90653851.795 6  22138588.598 6  22138590.110 6
 118128235.832 8  92047960.391 5  22479054.751 5  22479057.045 5
 18 01 01 00 12 30.0000000  0 10G05G16G18G20G21G25G26G27G29G31       0.000000000
 127232651.176 7  99142313.223 4  24211560.282 4  24211562.333 4
 114840361.488 7  89485968.806 5  21853389.709 5  21853391.719 5
 131671550.774 6 102601199.236 2  25056261.289 2  25056262.647 2
 122010833.576 7  95073371.769 4  23217885.940 4  23217886.738 4
 111924724.001 8  87214063.207 6  21298562.149 6  21298563.830 6
 129606845.251 7 100992350.379 4  24663363.278 4  24663360.998 4
 107984677.479 8  84143907.615 7  20548798.419 7  20548797.026 7
 125167648.654 7  97533230.013 4  23818608.526 4  23818607.655 4
 116422417.958 8  90718775.782 6  22154443.616 6  22154445.423 6
 118217137.769 8  92117234.614 5  22495972.330 5  22495974.569 5
 18 01 01 00 13 00.0000000  0 10G05G16G18G20G21G25G26G27G29G31       0.000000000
 127256644.657 7  99161009.431 4  24216126.560 4  24216128.367 4
 114761357.630 8  89424407.380 5  21838355.604 5  21838357.514 5
 131583366.409 6 102532484.218 2  25039480.488 2  25039481.321 2
 121953709.979 7  95028859.881 4  23207015.765 4  23207016.875 4
 111901038.331 8  87195606.846 6  21294054.726 6  21294056.412 6
 129713720.612 7 101075629.861 4  24683700.441 4  24683699.014 4
 107955590.328 8  84121242.304 7  20543263.306 7  20543261.765 7
 125069324.515 6  97456613.890 4  23799898.215 4  23799897.097 4
 116505926.648 8  90783847.474 5  22170334.730 5  22170336.640 5
 118306360.013 8  92186758.438 5  22512950.652 5  22512952.669 5
 18 01 01 00 13 30.0000000  0 10G05G16G18G20G21G25G26G27G29G31       0.000000000
 127281212.668 7  99180153.356 4  24220801.378 4  24220803.149 4
 114682630.976 8  89363061.925 5  21823374.327 5  21823376.649 5
 131495157.056 5 102463749.586 2  25022694.706 2  25022693.793 2
 121897028.975 7  94984692.871 4  23196229.577 4  23196230.953 4
 111877831.110 8  87177523.297 6  21289638.512 6  21289640.037 6
 129820700.191 7 101158990.590 4  24704058.348 4  24704056.129 4
 107926950.726 8  84098925.727 7  20537813.534 7  20537811.471 7
 124971136.943 7  97380104.138 4  23781213.755 4  23781212.907 4
 116589623.270 8  90849065.610 6  22186261.742 6  22186263.845 6
 118395899.875 8  92256529.760 5  22529989.984 5  22529991.843 5
 18 01 01 00 14 00.0000000  0 10G05G16G18G20G21G25G26G27G29G31       0.000000000
 127306354.697 7  99199744.547 4  24225585.066 4  24225587.604 4
 114604183.395 7  89301933.943 5  21808446.441 5  21808448.591 5
 131406925.077 6 102394997.418 2  25005904.729 2  25005906.530 2
 121840793.119 7  94940872.731 4  23185528.505 4  23185529.431 4
 111855102.794 8  87159812.921 6  21285313.308 6  21285315.234 6
 129927782.710 7 101242431.503 4  24724435.460 4  24724433.566 4
 107898759.933 8  84076958.878 7  20532449.108 7  20532447.043 7
 124873086.894 7  97303701.513 4  23762555.682 4  23762554.466 4
 116673506.443 8  90914429.123 5  22202224.321 5  22202225.900 5
 118485754.842 8  92326546.605 5  22547089.317 5  22547090.599 5
 18 01 01 00 14 30.0000000  0 10G05G16G18G20G21G25G26G27G29G31       0.000000000
 127332069.916 7  99219782.380 4  24230479.082 4  24230481.301 4
 114526016.420 8  89241024.615 5  21793571.741 5  21793573.919 5
 131318672.953 6 102326229.587 3  24989110.625 3  24989112.750 3
 121785004.738 7  94897401.277 4  23174911.975 4  23174913.136 4
 111832853.251 8  87142475.623 6  21281079.196 6  21281081.287 6
 130034966.842 7 101325951.586 4  24744832.672 4  24744830.229 4
 107871019.226 8  84055342.751 7  20527169.959 7  20527168.220 7
 124775175.370 6  97227406.851 4  23743923.549 4  23743922.718 4
 116757574.683 8  90979936.816 5  22218221.783 5  22218223.577 5
 118575922.233 8  92396806.901 5  22564246.780 5  22564248.812 5
 18 01 01 00 15 00.0000000  0 10G05G16G18G20G21G25G26G27G29G31       0.000000000
 127358357.869 7  99240266.498 4  24235481.710 4  24235483.561 4
 114448131.801 8  89180335.302 5  21778750.879 5  21778752.766 5
 131230403.196 6 102257447.925 2  24972312.885 2  24972314.018 2
 121729666.563 7  94854280.634 4  23164381.773 4  23164382.817 4
 111811083.093 8  87125511.885 6  21276936.653 6  21276938.627 6
 130142251.289 7 101409549.877 4  24765247.655 4  24765245.383 4
 107843729.911 8  84034078.344 7  20521976.818 7  20521975.224 7
 124677403.205 7  97151220.766 4  23725317.865 4  23725316.918 4
 116841826.527 8  91045587.597 6  22234254.585 6  22234256.276 6
 118666399.594 8  92467308.735 6  22581464.110 6  22581466.385 6
 18 01 01 00 15 30.0000000  0 10G05G16G18G20G21G25G26G27G29G31       0.000000000
 127385217.767 7  99261196.277 4  24240592.632 4  24240594.711 4
 114370531.705 8  89119867.687 5  21763983.833 5  21763986.005 5
 131142118.278 6 102188654.483 2  24955513.151 2  24955513.949 2
 121674780.829 7  94811512.537 4  23153937.158 4  23153938.375 4
 111789791.965 8  87108921.399 6  21272885.113 6  21272886.974 6
 130249634.835 7 101493225.347 4  24785682.044 4  24785680.700 4
 107816893.209 8  84013166.617 7  20516869.894 7  20516868.610 7
 124579771.448 7  97075144.133 4  23706739.105 4  23706737.716 4
 116926260.754 8  91111380.492 5  22250321.992 5  22250323.709 5
 118757184.214 8  92538049.989 5  22598739.625 5  22598742.061 5
 18 01 01 00 16 00.0000000  0 10G05G16G18G20G21G25G26G27G29G31       0.000000000
 127412648.858 7  99282571.150 4  24245812.173 4  24245815.207 4
 114293217.938 8  89059623.197 5  21749271.716 5  21749273.415 5
 131053820.476 6 102119851.015 2  24938710.989 2  24938711.682 2
 121620349.915 7  94769098.852 4  23143579.669 4  23143580.184 4
 111768979.384 8  87092703.809 6  21268924.816 6  21268926.313 6
 130357116.122 7 101576977.010 3  24806134.879 3  24806133.119 3
 107790510.401 8  83992608.584 7  20511849.474 7  20511848.085 7
 124482281.098 7  96999177.644 4  23688187.537 4  23688186.967 4
 117010875.949 8  91177314.405 5  22266423.469 5  22266425.247 5
 118848273.735 8  92609028.825 5  22616073.838 5  22616076.069 5
 18 01 01 00 16 30.0000000  0 10G05G16G18G20G21G25G26G27G29G31       0.000000000
 127440650.301 7  99304390.475 4  24251141.829 4  24251143.305 4
 114216192.471 8  88999603.355 5  21734614.198 5  21734616.112 5
 130965512.645 6 102051039.622 2  24921906.037 2  24921905.121 2
 121566375.762 7  94727041.077 4  23133308.839 4  23133309.233 4
 111748646.164 8  87076859.752 6  21265055.525 6  21265057.188 6
 130464693.907 7 101660803.857 3  24826605.999 3  24826604.704 3
 107764582.671 8  83972405.160 7  20506915.544 7  20506913.772 7
 124384932.924 7  96923322.021 4  23669662.718 4  23669661.909 4
 117095670.155 8  91243387.795 5  22282559.082 5  22282561.159 5
 118939665.341 8  92680243.056 5  22633465.199 5  22633467.112 5
 18 01 01 00 17 00.0000000  0 10G05G16G18G20G21G25G26G27G29G31       0.000000000
 127469220.856 7  99326653.268 4  24256577.725 4  24256580.385 4
 114139457.304 8  88939809.730 5  21720012.204 5  21720013.985 5
 130877197.411 6 101982222.653 2  24905101.617 2  24905100.556 2
 121512861.732 7  94685341.844 4  23123124.701 4  23123126.055 4
 111728793.068 8  87061389.810 6  21261277.635 6  21261279.162 6
 130572366.879 7 101744704.852 4  24847096.534 4  24847094.068 4
 107739111.337 8  83952557.362 7  20502068.417 7  20502067.062 7
 124287727.911 7  96847577.855 4  23651164.532 4  23651163.999 4
 117180642.667 8  91309600.129 5  22298728.979 5  22298730.812 5
 119031356.604 8  92751690.771 5  22650913.560 5  22650915.482 5
 18 01 01 00 17 30.0000000  0 10G05G16G18G20G21G25G26G27G29G31       0.000000000
 127498359.976 7  99349359.104 4  24262122.730 4  24262124.570 4
 114063014.068 8  88880243.571 6  21705465.367 6  21705467.360 6
 130788877.519 5 101913401.836 2  24888294.693 2  24888291.657 2
 121459809.827 7  94644002.713 4  23113029.610 4  23113030.410 4
 111709419.046 8  87046293.184 6  21257590.858 6  21257592.553 6
 130680133.672 7 101828679.024 4  24867602.921 4  24867601.315 4
 107714097.572 8  83933066.112 7  20497308.401 7  20497307.291 7
 124190667.069 7  96771946.060 4  23632694.643 4  23632694.458 4
 117265792.009 8  91375950.255 5  22314932.462 5  22314934.214 5
 119123344.623 8  92823369.727 6  22668418.129 6  22668420.137 6
 18 01 01 00 18 00.0000000  0 10G05G16G18G20G21G25G26G27G29G31       0.000000000
 127528066.774 7  99372507.253 4  24267775.947 4  24267778.228 4
 113986864.665 8  88820906.369 6  21690974.484 6  21690976.695 6
 130700555.047 6 101844579.164 2  24871486.735 2  24871487.967 2
 121407222.396 7  94603025.506 4  23103022.289 4  23103023.576 4
 111690524.701 8  87031570.331 6  21253995.369 6  21253996.900 6
 130787993.117 7 101912725.327 4  24888128.384 4  24888125.715 4
 107689542.602 8  83913932.364 7  20492635.878 7  20492634.464 7
 124093751.299 7  96696427.330 4  23614252.947 4  23614252.082 4
 117351116.936 8  91442437.185 5  22331169.111 5  22331170.766 5
 119215626.901 8  92895278.000 5  22685979.036 5  22685980.981 5
 18 01 01 00 18 30.0000000  0 10G05G16G18G20G21G25G26G27G29G31       0.000000000
 127558340.178 7  99396096.929 4  24273536.846 4  24273538.836 4
 113911010.856 8  88761799.500 6  21676539.899 6  21676542.097 6
 130612232.615 6 101775756.402 3  24854679.225 3  24854680.705 3
 121355101.471 7  94562411.798 4  23093103.823 4  23093104.902 4
 111672110.409 8  87017221.533 6  21250491.285 6  21250492.907 6
 130895943.805 7 101996842.745 3  24908670.414 3  24908669.155 3
 107665447.629 8  83895157.050 7  20488050.890 7  20488049.296 7
 123996981.492 7  96621022.332 4  23595838.032 4  23595836.863 4
 117436615.906 8  91509059.745 5  22347439.280 5  22347441.068 5
 119308201.074 8  92967413.706 5  22703594.506 5  22703597.325 5
 18 01 01 00 19 00.0000000  0 10G05G16G18G20G21G25G26G27G29G31       0.000000000
 127589179.571 7  99420127.592 4  24279405.256 4  24279407.923 4
 113835454.837 8  88702924.690 6  21662162.098 6  21662164.470 6
 130523912.709 6 101706935.691 2  24837873.643 2  24837873.871 2
 121303449.577 7  94522163.603 4  23083275.108 4  23083275.997 4
 111654175.809 8  87003246.522 6  21247078.520 6  21247079.961 6
 131003984.475 7 102081030.306 4  24929229.625 4  24929228.383 4
 107641813.853 8  83876741.123 7  20483553.713 7  20483552.029 7
 123900358.600 7  96545731.805 4  23577450.921 4  23577450.457 4
 117522287.651 8  91575816.921 5  22363742.011 5  22363743.996 5
 119401064.131 8  93039774.513 5  22721266.192 5  22721268.410 5
 18 01 01 00 19 30.0000000  0 10G05G16G18G20G21G25G26G27G29G31       0.000000000
 127620584.122 7  99444598.671 4  24285381.351 4  24285383.470 4
 113760198.155 8  88644283.118 6  21647841.432 6  21647843.360 6
 130435597.687 5 101638118.870 2  24821068.601 2  24821064.871 2
 121252268.923 7  94482282.574 4  23073535.990 4  23073536.858 4
 111636720.331 8  86989644.852 6  21243756.977 6  21243758.250 6
 131112113.826 7 102165286.934 3  24949806.337 3  24949804.289 3
 107618642.468 8  83858685.505 7  20479144.465 7  20479142.666 7
 123803883.555 7  96470556.457 4  23559091.950 4  23559091.814 4
 117608130.562 8  91642707.501 5  22380077.326 5  22380079.111 5
 119494213.568 8  93112358.469 5  22738991.914 5  22738994.343 5
 18 01 01 00 20 00.0000000  0 10G05G16G18G20G21G25G26G27G29G31       0.000000000
 127652552.834 7  99469509.391 4  24291464.623 4  24291466.923 4
 113685242.815 8  88585876.354 6  21633578.043 6  21633579.880 6
 130347290.323 6 101569307.785 2  24804263.487 2  24804265.244 2
 121201561.858 7  94442770.592 4  23063887.239 4  23063887.500 4
 111619744.416 7  86976416.864 6  21240526.453 6  21240527.991 6
 131220330.613 7 102249611.738 3  24970399.192 3  24970397.228 3
 107595934.677 8  83840991.112 7  20474823.460 7  20474821.590 7
 123707557.318 7  96395497.063 4  23540762.023 4  23540761.218 4
 117694142.891 8  91709730.088 5  22396444.945 5  22396446.855 5
 119587646.801 8  93185163.600 5  22756771.403 5  22756773.656 5
 18 01 01 00 20 30.0000000  0 10G05G16G18G20G21G25G26G27G29G31       0.000000000
 127685084.287 7  99494858.577 4  24297655.597 4  24297657.944 4
 113610590.727 8  88527705.907 6  21619372.333 6  21619374.123 6
 130258993.201 7 101500505.025 2  24787460.337 2  24787462.267 2
 121151330.553 7  94403629.336 4  23054328.023 4  23054329.010 4
 111603248.186 8  86963562.682 6  21237387.177 6  21237388.741 6
 131328633.442 7 102334003.534 4  24991008.918 4  24991006.592 4
 107573691.599 8  83823658.842 7  20470590.684 7  20470588.591 7
 123611380.799 7  96320554.380 4  23522460.034 4  23522459.847 4
 117780324.410 8  91776884.493 5  22412844.826 5  22412846.793 5
 119681361.096 7  93258187.689 5  22774604.654 5  22774607.264 5
 18 01 01 00 21 00.0000000  0 10G05G16G18G20G21G25G26G27G29G31       0.000000000
 127718177.779 7  99520645.689 4  24303952.805 4  24303955.002 4
 113536243.869 8  88469773.288 6  21605224.137 6  21605226.278 6
 130170709.011 7 101431712.083 3  24770659.584 3  24770662.448 3
 121101577.591 7  94364860.797 4  23044859.984 4  23044861.023 4
 111587231.689 8  86951082.306 6  21234339.194 6  21234340.961 6
 131437021.049 7 102418461.400 3  25011634.219 3  25011632.995 3
 107551914.408 8  83806689.609 7  20466446.394 7  20466444.622 7
 123515354.989 7  96245729.126 4  23504187.150 4  23504185.822 4
 117866673.293 8  91844169.310 5  22429276.595 5  22429278.095 5
 119775353.636 8  93331428.615 5  22792490.680 5  22792493.313 5
 18 01 01 00 21 30.0000000  0 10G05G16G18G20G21G25G26G27G29G31       0.000000000
 127751832.396 7  99546870.078 4  24310357.264 4  24310359.366 4
 113462203.782 8  88412079.704 6  21591134.922 6  21591137.060 6
 130082440.184 6 101362931.212 2  24753862.663 2  24753864.132 2
 121052304.880 7  94326466.502 4  23035483.653 4  23035484.533 4
 111571694.282 8  86938975.242 6  21231382.365 6  21231384.008 6
 131545492.077 7 102502984.313 4  25032275.511 4  25032273.619 4
 107530604.266 8  83790084.299 7  20462391.285 7  20462389.450 7
 123419480.715 7  96171021.936 4  23485942.850 4  23485941.663 4
 117953187.826 8  91911583.207 5  22445739.830 5  22445741.346 5
 119869622.099 8  93404884.582 5  22810429.175 5  22810432.058 5
 18 01 01 00 22 00.0000000  0 10G05G16G18G20G21G25G26G27G29G31       0.000000000
 127786047.004 7  99573530.769 4  24316868.304 4  24316870.358 4
 113388472.609 8  88354626.828 5  21577104.405 5  21577106.455 5
 129994189.302 6 101294164.282 2  24737069.922 2  24737070.463 2
 121003514.774 7  94288448.249 4  23026199.317 4  23026200.436 4
 111556636.385 8  86927241.809 6  21228516.972 6  21228518.911 6
 131654045.306 7 102587571.237 3  25052932.220 3  25052930.789 3
 107509762.346 8  83773843.835 7  20458425.264 7  20458423.564 7
 123323758.937 7  96096433.541 4  23467727.530 4  23467726.516 4
 118039867.104 8  91979125.508 5  22462234.206 5  22462236.208 5
 119964163.744 8  93478553.373 5  22828420.220 5  22828422.163 5
 18 01 01 00 22 30.0000000  0 10G05G16G18G20G21G25G26G27G29G31       0.000000000
 127820820.350 7  99600626.923 4  24323484.342 4  24323487.098 4
 113315052.451 8  88297416.321 6  21563133.044 6  21563134.751 6
 129905958.454 5 101225412.852 2  24720280.138 2  24720280.101 2
 120955209.297 7  94250807.630 4  23017007.973 4  23017008.110 4
 111542057.975 8  86915882.012 6  21225742.741 6  21225744.932 6
 131762679.274 7 102672221.133 3  25073604.978 3  25073602.915 3
 107489389.715 8  83757969.053 7  20454548.515 7  20454546.943 7
 123228190.643 7  96021964.812 5  23449541.106 5  23449540.408 5
 118126709.566 8  92046794.942 5  22478759.892 5  22478761.643 5
 120058975.836 8  93552432.902 5  22846462.538 5  22846464.940 5
 18 01 01 00 23 00.0000000  0 10G05G16G18G20G21G25G26G27G29G31       0.000000000
 127856151.670 7  99628157.835 4  24330208.138 4  24330210.866 4
 113241944.905 8  88240449.409 5  21549220.807 5  21549223.005 5
 129817750.958 6 101156679.795 2  24703494.060 2  24703493.891 2
 120907390.716 7  94213546.388 4  23007908.167 4  23007908.618 4
 111527958.728 7  86904895.607 6  21223059.848 6  21223061.653 6
 131871392.852 7 102756932.974 3  25094292.828 3  25094290.877 3
 107469487.513 8  83742460.844 7  20450761.153 7  20450759.152 7
 123132776.606 7  95947616.219 4  23431384.766 4  23431384.087 4
 118213713.985 8  92114590.579 5  22495315.757 5  22495317.624 5
 120154055.619 8  93626521.048 5  22864555.711 5  22864558.042 5
 18 01 01 00 23 30.0000000  0 10G05G16G18G20G21G25G26G27G29G31       0.000000000
 127892039.632 7  99656122.501 4  24337037.571 4  24337039.841 4
 113169152.099 8  88183727.741 6  21535368.941 6  21535371.149 6
 129729569.263 6 101087966.864 2  24686713.429 2  24686715.235 2
 120860061.257 7  94176666.327 4  22998901.085 4  22998901.934 4
 111514338.334 8  86894282.336 6  21220468.131 6  21220469.943 6
 131980184.605 7 102841705.762 3  25114994.836 3  25114993.749 3
 107450056.843 8  83727320.074 7  20447063.292 7  20447061.857 7
 123037517.883 7  95873388.623 4  23413257.028 4  23413256.830 4
 118300879.133 8  92182511.438 5  22511902.951 5  22511904.521 5
 120249400.639 8  93700815.880 5  22882699.382 5  22882700.969 5
 18 01 01 00 24 00.0000000  0 10G05G16G18G20G21G25G26G27G29G31       0.000000000
 127928483.072 7  99684519.982 4  24343972.449 4  24343974.684 4
 113096675.522 8  88127252.488 6  21521577.455 6  21521579.378 6
 129641415.638 6 101019275.693 2  24669938.186 2  24669941.230 2
 120813223.381 7  94140169.282 4  22989988.095 4  22989988.950 4
 111501197.004 8  86884042.345 6  21217967.292 6  21217968.955 6
 132089053.278 7 102926538.530 3  25135710.915 3  25135709.622 3
 107431098.861 8  83712547.607 7  20443455.694 7  20443454.475 7
 122942415.479 7  95799282.906 5  23395160.541 5  23395159.342 5
 118388203.418 8  92250556.303 5  22528520.555 5  22528522.530 5
 120345008.258 8  93775315.288 5  22900893.126 5  22900894.919 5
 18 01 01 00 24 30.0000000  0 10G05G16G18G20G21G25G26G27G29G31       0.000000000
 127965480.826 7  99713349.382 4  24351013.162 4  24351015.420 4
 113024517.294 8  88071025.305 6  21507846.118 6  21507848.288 6
 129553292.811 7 100950608.510 3  24653169.516 3  24653172.422 3
 120766878.902 7  94104056.706 4  22981169.233 4  22981170.198 4
 111488534.255 8  86874175.271 6  21215557.588 6  21215559.427 6
 132197997.517 6 103011430.121 3  25156442.591 3  25156440.732 3
 107412614.571 8  83698144.263 7  20439938.342 7  20439937.167 7
 122847470.203 7  95725299.601 5  23377092.749 5  23377092.118 5
 118475685.895 8  92318724.447 5  22545167.735 5  22545169.770 5
 120440875.449 8  93850016.995 5  22919135.880 5  22919138.027 5
 18 01 01 00 25 00.0000000  0 10G05G16G18G20G21G25G26G27G29G31       0.000000000
 128003031.982 7  99742610.012 4  24358158.998 4  24358161.403 4
 112952679.269 8  88015047.615 6  21494175.522 6  21494177.784 6
 129465203.273 6 100881967.403 3  24636407.031 3  24636408.393 3
 120721029.700 7  94068330.077 4  22972444.350 4  22972445.271 4
 111476350.126 8  86864681.152 6  21213238.841 6  21213240.851 6
 132307016.016 7 103096379.621 3  25177188.456 3  25177186.829 3
 107394605.108 8  83684110.908 7  20436511.416 7  20436509.528 7
 122752682.924 7  95651439.420 4  23359055.239 4  23359054.191 4
 118563324.870 8  92387014.538 5  22561845.063 5  22561846.805 5
 120536999.524 8  93924918.850 5  22937427.682 5  22937430.104 5
 18 01 01 00 25 30.0000000  0 10G05G16G18G20G21G25G26G27G29G31       0.000000000
 128041135.138 7  99772300.789 4  24365409.180 4  24365411.877 4
 112881163.206 8  87959320.809 6  21480566.403 6  21480568.678 6
 129377149.622 7 100813354.152 3  24619650.216 3  24619653.173 3
 120675678.257 7  94032991.310 4  22963814.110 4  22963814.888 4
 111464644.170 8  86855559.636 6  21211011.244 6  21211013.476 6
 132416107.460 7 103181385.976 3  25197947.754 3  25197946.357 3
 107377071.520 8  83670448.371 7  20433174.906 7  20433173.031 7
 122658054.658 7  95577703.112 5  23341048.064 5  23341047.074 5
 118651119.416 8  92455425.850 5  22578551.608 5  22578553.676 5
 120633378.274 8  94000019.185 5  22955768.235 5  22955770.189 5
 18 01 01 00 26 00.0000000  0 10G05G16G18G20G21G25G26G27G29G31       0.000000000
 128079789.020 7  99802420.687 4  24372765.227 4  24372767.326 4
 112809971.205 8  87903846.523 6  21467019.189 6  21467021.455 6
 129289134.633 6 100744771.044 3  24602901.423 3  24602902.623 3
 120630826.285 7  93998041.733 4  22955278.637 4  22955279.809 4
 111453416.227 7  86846810.601 6  21208874.672 6  21208876.668 6
 132525270.509 7 103266448.074 3  25218721.137 3  25218719.290 3
 107360014.862 8  83657157.480 7  20429929.174 7  20429927.575 7
 122563586.334 7  95504091.461 5  23323071.300 5  23323070.254 5
 118739068.256 8  92523957.392 5  22595287.885 5  22595289.751 5
 120730008.758 8  94075315.648 5  22974155.958 5  22974158.485 5
 18 01 01 00 26 30.0000000  0 10G05G16G18G20G21G25G26G27G29G31       0.000000000
 128118992.520 7  99832968.911 3  24380225.172 3  24380227.918 3
 112739105.312 8  87848626.337 6  21453534.018 6  21453536.308 6
 129201160.851 6 100676220.089 3  24586161.018 3  24586162.151 3
 120586476.305 7  93963483.334 4  22946839.151 4  22946840.348 4
 111442666.450 7  86838434.173 6  21206829.057 6  21206831.072 6
 132634503.831 7 103351564.933 3  25239507.792 3  25239505.484 3
 107343436.206 8  83644239.045 7  20426774.404 7  20426772.663 7
 122469278.834 7  95430605.132 5  23305124.940 5  23305123.957 5
 118827169.875 8  92592607.981 5  22612053.313 5  22612054.775 5
 120826888.287 8  94150806.185 5  22992591.675 5  22992593.775 5
 18 01 01 00 27 00.0000000  0 10G05G16G18G20G21G25G26G27G29G31       0.000000000
 128158744.477 7  99863944.467 3  24387789.508 3  24387792.349 3
 112668567.199 8  87793661.577 6  21440111.177 6  21440113.286 6
 129113230.676 7 100607703.060 2  24569428.994 2  24569429.683 2
 120542630.280 7  93929317.611 4  22938496.069 4  22938496.884 4
 111432394.592 8  86830430.129 6  21204874.537 6  21204876.294 6
 132743806.231 7 103436735.666 3  25260306.292 3  25260305.711 3
 107327336.545 8  83631693.841 7  20423710.636 7  20423709.175 7
 122375133.064 7  95357244.829 5  23287209.773 5  23287208.979 5
 118915423.117 8  92661376.719 5  22628847.444 5  22628849.209 5
 120924014.049 8  94226488.578 5  23011074.233 5  23011076.483 5
 18 01 01 00 27 30.0000000  0 10G05G16G18G20G21G25G26G27G29G31       0.000000000
 128199043.231 7  99895346.072 4  24395458.613 4  24395460.967 4
 112598358.802 8  87738953.742 6  21426750.712 6  21426752.948 6
 129025346.694 6 100539221.968 3  24552705.877 3  24552704.567 3
 120499290.205 7  93895546.139 4  22930248.465 4  22930249.554 4
 111422600.251 8  86822798.171 6  21203010.774 6  21203012.581 6
 132853176.216 7 103521959.014 3  25281119.745 3  25281118.057 3
 107311716.914 8  83619522.707 7  20420738.335 7  20420736.726 7
 122281150.051 7  95284011.335 5  23269325.366 5  23269324.784 5
 119003826.644 8  92730262.572 5  22645669.880 5  22645671.588 5
 121021383.566 8  94302360.932 5  23029603.224 5  23029604.732 5
 18 01 01 00 28 00.0000000  0 10G05G16G18G20G21G25G26G27G29G31       0.000000000
 128239887.654 7  99927172.925 4  24403231.120 4  24403232.587 4
 112528481.894 8  87684504.199 6  21413453.224 6  21413455.546 6
 128937511.478 6 100470778.927 3  24535991.287 3  24535990.415 3
 120456457.995 7  93862170.397 4  22922097.981 4  22922098.926 4
 111413283.079 8  86815538.045 6  21201237.771 6  21201239.393 6
 132962612.531 7 103607234.100 3  25301943.931 3  25301942.596 3
 107296578.352 8  83607726.417 7  20417857.600 7  20417855.807 7
 122187330.567 7  95210905.251 4  23251471.796 4  23251470.827 4
 119092379.266 8  92799264.598 5  22662520.734 5  22662522.427 5
 121118993.885 8  94378420.919 5  23048177.780 5  23048179.704 5
 18 01 01 00 28 30.0000000  0 10G05G16G18G20G21G25G26G27G29G31       0.000000000
 128281276.010 7  99959423.597 4  24411106.810 4  24411108.923 4
 112458938.673 8  87630314.677 6  21400219.774 6  21400221.729 6
 128849727.889 6 100402376.074 2  24519285.587 2  24519287.176 2
 120414135.356 7  93829191.725 4  22914043.949 4  22914045.219 4
 111404442.677 8  86808649.435 6  21199555.627 6  21199557.118 6
 133072113.820 6 103692559.768 3  25322781.804 3  25322779.878 3
 107281921.856 8  83596305.762 7  20415068.635 7  20415067.015 7
 122093675.642 7  95137927.413 4  23233649.916 4  23233649.384 4
 119181079.442 8  92868381.595 5  22679400.286 5  22679401.945 5
 121216842.586 8  94454666.664 5  23066797.974 5  23066799.468 5
 18 01 01 00 29 00.0000000  0 10G05G16G18G20G21G25G26G27G29G31       0.000000000
 128323207.529 7  99992097.524 4  24419086.461 4  24419088.215 4
 112389730.617 8  87576386.332 6  21387050.113 6  21387051.993 6
 128761998.604 6 100334015.701 2  24502592.112 2  24502592.201 2
 120372324.899 7  93796612.182 4  22906087.766 4  22906089.175 4
 111396079.148 7  86802132.406 6  21197963.975 6  21197965.618 6
 133181678.736 6 103777935.027 3  25343630.775 3  25343629.634 3
 107267748.400 8  83585261.503 7  20412371.581 7  20412369.704 7
 122000186.098 7  95065078.422 5  23215859.678 5  23215858.286 5
 119269926.170 8  92937612.787 5  22696307.232 5  22696308.727 5
 121314926.791 8  94531095.883 5  23085462.384 5  23085464.219 5
 18 01 01 00 29 30.0000000  0 10G05G16G18G20G21G25G26G27G29G31       0.000000000
 128365680.996 7 100025193.731 4  24427168.346 4  24427171.100 4
 112320860.047 8  87522720.943 6  21373944.516 6  21373946.594 6
 128674326.212 6 100265699.475 3  24485908.837 3  24485910.234 3
 120331028.409 7  93764433.123 4  22898229.394 4  22898230.569 4
 111388191.731 7  86795986.368 6  21196463.075 6  21196464.856 6
 133291306.037 7 103863358.945 3  25364492.120 3  25364491.141 3
 107254058.983 8  83574594.425 7  20409766.463 7  20409764.535 7
 121906862.977 7  94992359.140 5  23198101.139 5  23198099.843 5
 119358918.171 8  93006957.173 5  22713241.732 5  22713242.835 5
 121413243.864 8  94607706.598 5  23104171.496 5  23104173.719 5
 18 01 01 00 30 00.0000000  0 10G05G16G18G20G21G25G26G27G29G31       0.000000000
 128408694.796 7 100058710.938 4  24435353.803 4  24435355.671 4
 112252328.584 8  87469319.810 6  21360903.319 6  21360905.885 6
 128586713.129 6 100197429.460 3  24469236.057 3  24469236.361 3
 120290247.284 7  93732655.631 4  22890468.862 4  22890469.924 4
 111380780.370 7  86790211.292 6  21195052.752 6  21195054.439 6
 133400994.301 6 103948830.266 3  25385365.926 3  25385363.784 3
 107240854.511 8  83564305.220 7  20407253.531 7  20407251.929 7
 121813707.121 7  94919770.201 5  23180374.071 5  23180372.796 5
 119448054.460 8  93076414.008 5  22730203.472 5  22730205.408 5
 121511790.868 8  94684496.482 5  23122924.073 5  23122926.242 5
 18 01 01 00 30 30.0000000  0 10G05G16G18G20G21G25G26G27G29G31       0.000000000
 128452247.337 6 100092648.044 3  24443641.473 3  24443643.483 3
 112184138.283 8  87416184.509 6  21347927.247 6  21347929.267 6
 128499161.634 6 100129207.543 3  24452575.314 3  24452577.091 3
 120249984.187 7  93701281.802 4  22882807.255 4  22882808.265 4
 111373844.443 7  86784806.682 6  21193732.962 6  21193734.477 6
 133510742.268 6 104034348.187 3  25406249.464 3  25406249.025 3
 107228136.039 8  83554394.708 7  20404833.310 7  20404831.748 7
 121720719.533 7  94847312.356 5  23162678.885 5  23162678.178 5
 119537333.504 8  93145982.065 5  22747192.866 5  22747194.568 5
 121610565.499 7  94761463.723 5  23141720.077 5  23141722.607 5
 18 01 01 00 31 00.0000000  0 10G05G16G18G20G21G25G26G27G29G31       0.000000000
 128496337.292 7 100127003.852 4  24452031.395 4  24452033.689 4
 112116290.904 8  87363316.426 6  21335016.135 6  21335018.172 6
 128411674.522 6 100061035.811 3  24435927.110 3  24435927.913 3
 120210240.625 7  93670312.818 4  22875244.212 4  22875245.393 4
 111367383.521 8  86779772.198 6  21192503.574 6  21192505.179 6
 133620548.579 6 104119911.574 3  25427145.159 3  25427143.401 3
 107215904.433 8  83544863.584 7  20402505.764 7  20402504.272 7
 121627900.991 7  94774986.253 5  23145016.025 5  23145014.754 5
 119626753.630 8  93215660.051 5  22764209.210 5  22764210.721 5
 121709564.683 7  94838605.948 5  23160559.466 5  23160561.235 5
 18 01 01 00 31 30.0000000  0 10G05G16G18G20G21G25G26G27G29G31       0.000000000
 128540962.934 7 100161777.064 4  24460523.476 4  24460526.216 4
 112048788.494 8  87310717.150 6  21322171.028 6  21322173.129 6
 128324254.620 7  99992916.463 3  24419291.592 3  24419294.508 3
 120171018.154 7  93639749.873 4  22867780.399 4  22867781.609 4
 111361397.745 8  86775107.959 6  21191364.393 6  21191366.205 6
 133730411.915 7 104205519.357 3  25448051.162 3  25448050.436 3
 107204160.650 8  83535712.584 7  20400271.093 7  20400269.354 7
 121535252.454 7  94702792.598 5  23127385.612 5  23127384.569 5
 119716314.072 8  93285447.405 5  22781251.806 5  22781253.321 5
 121808786.012 8  94915921.239 5  23179440.687 5  23179443.076 5
 18 01 01 00 32 00.0000000  0 10G05G16G18G20G21G25G26G27G29G31       0.000000000
 128586123.395 7 100196967.067 4  24469117.143 4  24469119.359 4
 111981632.659 8  87258387.933 6  21309391.815 6  21309393.571 6
 128236904.558 6  99924851.429 3  24402668.814 3  24402669.674 3
 120132319.385 7  93609595.003 4  22860416.209 4  22860417.458 4
 111355886.751 8  86770813.693 6  21190315.556 6  21190317.374 6
 133840330.921 6 104291170.496 3  25468968.634 3  25468967.390 3
 107192905.594 8  83526942.405 7  20398129.427 7  20398127.668 7
 121442774.845 7  94630732.145 5  23109787.787 5  23109786.508 5
 119806013.942 8  93355343.369 5  22798321.358 5  22798322.724 5
 121908226.553 8  94993407.385 5  23198363.408 5  23198365.632 5
 18 01 01 00 32 30.0000000  0 10G05G16G18G20G21G25G26G27G29G31       0.000000000
 128631816.871 7 100232572.386 4  24477812.334 4  24477814.795 4
 111914825.516 8  87206330.407 6  21296678.692 6  21296680.821 6
 128149626.868 7  99856842.848 3  24386060.362 3  24386063.246 3
 120094145.874 7  93579849.430 4  22853151.423 4  22853152.955 4
 111350849.558 8  86766888.622 6  21189356.894 6  21189358.682 6
 133950304.232 6 104376864.085 3  25489895.953 3  25489894.082 3
 107182140.174 8  83518553.774 7  20396080.646 7  20396078.933 7
 121350469.155 7  94558805.633 5  23092222.422 5  23092221.346 5
 119895851.746 8  93425346.820 5  22815416.992 5  22815418.519 5
 122007883.461 8  95071062.131 5  23217327.559 5  23217329.797 5
 18 01 01 00 33 00.0000000  0 10G05G16G18G20G21G25G26G27G29G31       0.000000000
 128678041.704 7 100268591.757 4  24486608.664 4  24486610.781 4
 111848369.067 8  87154546.169 6  21284032.134 6  21284034.209 6
 128062424.309 6  99788892.793 3  24369467.097 3  24369468.076 3
 120056499.196 7  93550514.383 4  22845987.866 4  22845988.977 4
 111346285.812 8  86763332.478 6  21188488.339 6  21188490.235 6
 134060330.729 6 104462598.969 3  25510833.418 3  25510831.549 3
 107171865.301 8  83510547.375 7  20394125.174 7  20394123.974 7
 121258336.256 7  94487013.789 5  23074690.549 5  23074689.309 5
 119985826.072 8  93495456.671 5  22832538.446 5  22832540.406 5
 122107754.626 8  95148883.812 5  23236332.537 5  23236334.666 5
 18 01 01 00 33 30.0000000  0 10G05G16G18G20G21G25G26G27G29G31       0.000000000
 128724796.642 7 100305024.209 3  24495506.388 3  24495507.920 3
 111782265.137 8  87103036.610 6  21271452.973 6  21271455.304 6
 127975299.332 6  99721003.215 3  24352887.201 3  24352889.477 3
 120019381.363 7  93521591.419 4  22838924.768 4  22838925.634 4
 111342195.662 8  86760145.341 6  21187709.932 6  21187712.103 6
 134170408.822 6 104548374.112 3  25531780.541 3  25531779.612 3
 107162081.864 8  83502923.914 6  20392263.418 6  20392262.050 6
 121166377.029 7  94415357.281 5  23057190.778 5  23057190.161 5
 120075935.786 8  93565672.020 5  22849686.072 5  22849687.280 5
 122207836.813 7  95226869.920 5  23255377.566 5  23255379.214 5
 18 01 01 00 34 00.0000000  0 10G05G16G18G20G21G25G26G27G29G31       0.000000000
 128772079.930 7 100341868.288 4  24504503.905 4  24504506.043 4
 111716515.736 8  87051803.312 6  21258941.288 6  21258943.821 6
 127888254.378 7  99653175.996 3  24336323.636 3  24336324.400 3
 119982794.102 7  93493081.878 4  22831962.729 4  22831963.554 4
 111338578.137 8  86757326.493 6  21187021.557 6  21187023.568 6
 134280537.257 6 104634188.497 3  25552737.391 3  25552735.485 3
 107152790.734 8  83495684.067 7  20390495.527 7  20390494.291 7
 121074592.451 7  94343836.838 5  23039724.164 5  23039724.024 5
 120166179.698 8  93635991.930 5  22866858.941 5  22866860.452 5
 122308127.279 8  95305018.325 5  23274461.973 5  23274464.432 5
 18 01 01 00 34 30.0000000  0 10G05G16G18G20G21G25G26G27G29G31       0.000000000
 128819889.733 7 100379122.687 3  24513601.282 3  24513603.473 3
 111651122.490 8  87000847.532 6  21246497.648 6  21246499.600 6
 127801292.539 6  99585413.498 3  24319775.042 3  24319776.819 3
 119946738.989 7  93464987.005 4  22825101.199 4  22825102.366 4
 111335432.547 8  86754875.390 6  21186422.981 6  21186424.676 6
 134390714.670 7 104720041.036 3  25573703.586 3  25573701.425 3
 107143992.776 8  83488828.511 7  20388821.436 7  20388820.133 7
 120982983.314 7  94272453.116 5  23022291.821 5  23022290.950 5
 120256556.828 8  93706415.647 5  22884057.034 5  22884058.723 5
 122408623.320 7  95383326.946 5  23293586.070 5  23293587.865 5
 18 01 01 00 35 00.0000000  0 10G05G16G18G20G21G25G26G27G29G31       0.000000000
 128868224.773 7 100416786.323 3  24522799.016 3  24522801.383 3
 111586087.160 8  86950170.647 6  21234121.887 6  21234123.732 6
 127714416.200 7  99517717.642 3  24303242.219 3  24303244.751 3
 119911218.048 7  93437308.365 4  22818342.391 4  22818342.534 4
 111332758.945 7  86752792.073 6  21185914.321 6  21185916.216 6
 134500939.788 6 104805930.725 2  25594679.153 2  25594676.122 2
 107135688.764 8  83482357.868 7  20387241.326 7  20387239.658 7
 120891550.657 7  94201206.942 5  23004893.730 5  23004891.944 5
 120347065.661 8  93776941.998 5  22901280.262 5  22901281.541 5
 122509322.289 7  95461793.654 5  23312748.327 5  23312750.095 5
 18 01 01 00 35 30.0000000  0 10G05G16G18G20G21G25G26G27G29G31       0.000000000
 128917083.510 6 100454858.103 3  24532096.477 3  24532099.113 3
 111521411.987 8  86899774.416 6  21221814.573 6  21221816.525 6
 127627627.953 6  99450090.434 3  24286727.350 3  24286728.501 3
 119876233.114 7  93410047.400 4  22811684.444 4  22811685.342 4
 111330557.046 7  86751076.324 6  21185495.312 6  21185497.242 6
 134611211.230 6 104891856.553 3  25615662.014 3  25615660.182 3
 107127879.632 8  83476272.818 7  20385755.146 7  20385753.512 7
 120800295.291 7  94130098.892 5  22987527.630 5  22987526.534 5
 120437705.288 8  93847570.250 5  22918528.450 5  22918530.036 5
 122610221.471 8  95540416.407 5  23331948.580 5  23331950.819 5
 18 01 01 00 36 00.0000000  0 10G05G16G18G20G21G25G26G27G29G31       0.000000000
 128966464.462 6 100493336.753 3  24541494.410 3  24541495.637 3
 111457098.650 8  86849660.119 6  21209576.225 6  21209578.190 6
 127540930.725 6  99382534.184 3  24270230.443 3  24270231.507 3
 119841785.509 7  93383205.146 4  22805129.560 4  22805130.152 4
 111328826.181 7  86749727.605 6  21185165.910 6  21185167.732 6
 134721527.746 6 104977817.462 3  25636654.641 3  25636652.876 3
 107120566.137 8  83470573.992 7  20384363.376 7  20384361.865 7
 120709218.216 7  94059129.725 5  22970195.661 5  22970195.613 5
 120528474.353 8  93918299.389 5  22935800.790 5  22935802.477 5
 122711318.277 7  95619193.131 5  23351186.819 5  23351188.478 5
 18 01 01 00 36 30.0000000  0 10G05G16G18G20G21G25G26G27G29G31       0.000000000
 129016365.495 7 100532220.686 3  24550989.404 3  24550992.168 3
 111393149.116 8  86799829.310 6  21197407.035 6  21197408.964 6
 127454326.083 7  99315050.052 3  24253749.759 3  24253750.735 3
 119807877.248 7  93356783.135 4  22798676.852 4  22798677.534 4
 111327565.510 7  86748745.277 6  21184925.967 6  21184928.189 6
 134831887.963 6 105063812.470 3  25657655.424 3  25657653.952 3
 107113749.105 8  83465262.016 7  20383066.131 7  20383064.573 7
 120618320.309 7  93988300.199 5  22952898.799 5  22952898.090 5
 120619371.433 8  93989128.250 5  22953098.153 5  22953099.777 5
 122812609.769 7  95698121.558 5  23370462.169 5  23370464.271 5
 18 01 01 00 37 00.0000000  0 10G05G16G18G20G21G25G26G27G29G31       0.000000000
 129066785.573 7 100571509.059 3  24560583.878 3  24560586.227 3
 111329565.352 8  86750283.514 6  21185307.477 6  21185309.250 6
 127367817.699 6  99247640.911 3  24237287.325 3  24237288.220 3
 119774509.880 7  93330782.625 4  22792326.669 4  22792327.913 4
 111326773.326 7  86748127.989 6  21184775.095 6  21184777.161 6
 134942290.580 6 105149840.506 3  25678664.453 3  25678662.869 3
 107107429.334 8  83460337.523 7  20381863.574 7  20381862.226 7
 120527602.446 7  93917610.997 5  22935636.417 5  22935635.407 5
 120710395.863 8  94060056.361 5  22970419.461 5  22970420.889 5
 122914093.245 7  95777199.604 5  23389773.586 5  23389775.846 5
 18 01 01 00 37 30.0000000  0 10G05G16G18G20G21G25G26G27G29G31       0.000000000
 129117722.582 7 100611200.206 3  24570277.082 3  24570279.235 3
 111266349.217 8  86701024.190 6  21173277.900 6  21173279.964 6
 127281408.162 7  99180308.815 3  24220843.657 3  24220844.875 3
 119741684.902 7  93305204.748 4  22786080.752 4  22786081.580 4
 111326451.031 7  86747876.854 6  21184713.690 6  21184715.886 6
 135052734.272 6 105235900.556 2  25699681.660 2  25699679.146 2
 107101607.613 8  83455801.116 7  20380755.765 7  20380754.348 7
 120437065.637 7  93847062.849 5  22918407.113 5  22918406.712 5
 120801545.999 8  94131082.430 5  22987764.608 5  22987766.476 5
 123015765.873 8  95856425.009 5  23409121.000 5  23409123.394 5
 18 01 01 00 38 00.0000000  0 10G05G16G18G20G21G25G26G27G29G31       0.000000000
 129169175.067 6 100651293.046 3  24580068.057 3  24580070.155 3
 111203502.488 8  86652052.713 6  21161318.264 6  21161320.628 6
 127195099.692 7  99113055.449 3  24204419.508 3  24204421.013 3
 119709404.082 7  93280050.881 4  22779937.972 4  22779939.268 4
 111326597.786 8  86747991.213 6  21184741.629 6  21184743.697 6
 135163217.787 7 105321991.565 3  25720705.915 3  25720704.152 3
 107096284.702 8  83451653.384 7  20379742.898 7  20379741.421 7
 120346710.727 7  93776656.470 5  22901213.299 5  22901212.499 5
 120892821.147 8  94202205.909 5  23005133.517 5  23005135.638 5
 123117625.171 8  95935795.920 5  23428504.344 5  23428506.719 5
 18 01 01 00 38 30.0000000  0 10G05G16G18G20G21G25G26G27G29G31       0.000000000
 129221140.867 6 100691785.906 3  24589956.889 3  24589959.196 3
 111141027.118 8  86603370.601 6  21149429.427 6  21149432.424 6
 127108894.718 7  99045882.795 3  24188015.499 3  24188017.264 3
 119677669.185 7  93255322.403 4  22773899.157 4  22773900.345 4
 111327212.762 7  86748470.430 6  21184858.830 6  21184860.675 6
 135273739.748 6 105408112.620 3  25741737.360 3  25741735.900 3
 107091461.339 8  83447894.914 7  20378825.097 7  20378823.553 7
 120256538.588 7  93706392.485 5  22884054.033 5  22884053.892 5
 120984219.832 8  94273425.634 5  23022526.572 5  23022528.387 5
 123219668.437 8  96015310.152 5  23447922.705 5  23447924.865 5
 18 01 01 00 39 00.0000000  0 10G05G16G18G20G21G25G26G27G29G31       0.000000000
 129273618.638 7 100732677.696 3  24599943.087 3  24599945.416 3
 111078924.968 8  86554979.313 6  21137612.082 6  21137614.413 6
 127022796.620 7  98978793.375 3  24171631.814 3  24171633.147 3
 119646481.458 7  93231020.302 4  22767964.407 4  22767965.016 4
 111328295.184 7  86749313.871 6  21185064.936 6  21185066.727 6
 135384298.722 6 105494262.480 3  25762775.803 3  25762773.299 3
 107087138.092 8  83444526.158 7  20378002.390 7  20378000.740 7
 120166550.208 7  93636271.671 5  22866929.677 5  22866929.101 5
 121075741.070 7  94344740.842 5  23039942.688 5  23039944.138 5
 123321892.723 7  96094965.424 5  23467375.546 5  23467377.609 5
 18 01 01 00 39 30.0000000  0 10G05G16G18G20G21G25G26G27G29G31       0.000000000
 129326606.839 6 100773967.201 3  24610026.059 3  24610028.650 3
 111017197.903 8  86506880.314 6  21125865.791 6  21125867.488 6
 126936807.608 7  98911788.921 3  24155268.913 3  24155270.088 3
 119615842.810 7  93207146.035 4  22762133.751 4  22762134.861 4
 111329844.260 7  86750520.958 6  21185359.782 6  21185361.531 6
 135494893.425 6 105580440.161 3  25783821.365 3  25783819.787 3
 107083316.090 8  83441547.967 7  20377275.085 7  20377273.354 7
 120076746.487 7  93566294.777 5  22849840.661 5  22849839.929 5
 121167383.536 7  94416150.502 5  23057381.471 5  23057383.439 5
 123424295.248 7  96174759.616 5  23486861.889 5  23486863.962 5
 18 01 01 00 40 00.0000000  0 10G05G16G18G20G21G25G26G27G29G31       0.000000000
 129380103.420 6 100815652.839 3  24620206.463 3  24620208.440 3
 110955847.755 8  86459075.000 6  21114191.145 6  21114193.271 6
 126850930.293 7  98844871.540 3  24138926.778 3  24138928.460 3
 119585754.321 7  93183700.474 4  22756407.444 4  22756409.725 4
 111331859.546 7  86752091.317 6  21185743.393 6  21185745.163 6
 135605522.614 6 105666644.717 3  25804873.370 3  25804871.203 3
 107079995.842 8  83438960.749 7  20376643.375 7  20376641.788 7
 119987128.254 7  93496462.427 5  22832787.091 5  22832786.149 5
 121259146.192 7  94487653.863 5  23074843.000 5  23074845.303 5
 123526873.518 7  96254690.734 5  23506381.514 5  23506383.650 5
 18 01 01 00 40 30.0000000  0 10G05G16G18G20G21G25G26G27G29G31       0.000000000
 129434106.575 6 100857733.230 3  24630483.084 3  24630485.604 3
 110894876.513 8  86411564.939 6  21102588.845 6  21102590.807 6
 126765167.179 7  98778043.139 3  24122606.415 3  24122607.575 3
 119556217.644 7  93160684.918 4  22750786.990 4  22750788.599 4
 111334340.485 7  86754024.520 6  21186215.516 6  21186217.100 6
 135716184.864 6 105752875.078 2  25825931.555 2  25825930.268 2
 107077178.024 8  83436765.043 7  20376107.348 7  20376105.332 7
 119897696.523 7  93426775.395 5  22815768.824 5  22815767.876 5
 121351027.866 7  94559249.938 5  23092327.742 5  23092329.718 5
 123629624.753 7  96334756.646 5  23525934.735 5  23525936.879 5
 18 01 01 00 41 00.0000000  0 10G05G16G18G20G21G25G26G27G29G31       0.000000000
 129488614.396 6 100900206.892 3  24640856.197 3  24640857.516 3
 110834286.045 8  86364351.582 6  21091058.927 6  21091061.049 6
 126679521.290 7  98711306.096 3  24106309.261 3  24106309.902 3
 119527234.589 7  93138100.740 4  22745271.767 4  22745273.132 4
 111337286.381 7  86756320.044 6  21186775.909 6  21186777.566 6
 135826879.070 6 105839130.345 2  25846995.594 2  25846994.280 2
 107074863.330 8  83434961.392 7  20375666.790 7  20375664.984 7
 119808452.140 7  93357234.335 5  22798786.201 5  22798785.265 5
 121443027.475 7  94630937.928 5  23109835.128 5  23109837.181 5
 123732546.073 7  96414955.073 5  23545520.044 5  23545521.751 5
 18 01 01 00 41 30.0000000  0 10G05G16G18G20G21G25G26G27G29G31       0.000000000
 129543625.158 6 100943072.410 3  24651324.038 3  24651326.311 3
 110774078.140 8  86317436.333 6  21079601.861 6  21079603.989 6
 126593995.162 6  98644662.372 3  24090033.659 3  24090034.826 3
 119498806.365 7  93115948.893 4  22739862.414 4  22739863.619 4
 111340696.723 7  86758977.449 6  21187424.790 6  21187426.756 6
 135937603.861 6 105925409.449 2  25868066.152 2  25868064.633 2
 107073052.457 8  83433550.323 7  20375322.229 7  20375320.470 7
 119719395.959 7  93287839.940 5  22781839.051 5  22781838.630 5
 121535143.812 7  94702716.873 5  23127364.371 5  23127366.002 5
 123835634.679 7  96495283.851 5  23565137.114 5  23565139.106 5
 18 01 01 00 42 00.0000000  0 10G05G16G18G20G21G25G26G27G29G31       0.000000000
 129599137.046 6 100986328.458 3  24661886.453 3  24661889.591 3
 110714254.660 7  86270820.643 6  21068217.875 6  21068219.780 6
 126508591.189 7  98578113.834 3  24073782.061 3  24073783.312 3
 119470934.262 7  93094230.375 4  22734558.368 4  22734559.701 4
 111344570.676 7  86761996.135 6  21188161.915 6  21188163.849 6
 136048357.985 6 106011711.344 2  25889141.804 2  25889139.726 2
 107071746.081 8  83432532.356 7  20375073.553 7  20375071.801 7
 119630528.978 7  93218592.941 5  22764927.674 5  22764927.587 5
 121627375.706 7  94774585.861 5  23144915.767 5  23144916.597 5
 123938888.092 7  96575741.076 5  23584785.428 5  23584787.740 5
 18 01 01 00 42 30.0000000  0 10G05G16G18G20G21G25G26G27G29G31       0.000000000
 129655148.440 7 101029973.678 3  24672545.066 3  24672548.442 3
 110654817.532 8  86224506.011 6  21056907.053 6  21056908.882 6
 126423312.129 7  98511662.639 3  24057553.997 3  24057555.473 3
 119443620.115 7  93072946.640 4  22729360.169 4  22729361.674 4
 111348907.534 7  86765375.499 6  21188987.148 6  21188989.086 6
 136159140.013 6 106098034.948 2  25910222.893 2  25910221.824 2
 107070944.831 8  83431908.001 7  20374921.040 7  20374919.478 7
 119541852.103 7  93149494.094 5  22748053.537 5  22748053.064 5
 121719722.294 8  94846544.202 5  23162488.385 5  23162490.330 5
 124042303.422 7  96656324.448 5  23604464.789 5  23604467.048 5
 18 01 01 00 43 00.0000000  0 10G05G16G18G20G21G25G26G27G29G31       0.000000000
 129711656.853 6 101074006.186 3  24683299.327 3  24683301.204 3
 110595768.543 8  86178493.813 6  21045670.259 6  21045672.627 6
 126338160.735 7  98445310.886 3  24041349.347 3  24041351.280 3
 119416864.955 7  93052098.498 5  22724269.339 5  22724270.440 5
 111353706.676 7  86769115.106 6  21189900.392 6  21189902.107 6
 136269948.820 6 106184379.538 2  25931309.048 2  25931307.578 2
 107070649.325 8  83431677.726 7  20374864.818 7  20374863.122 7
 119453366.191 7  93080544.058 5  22731215.454 5  22731214.474 5
 121812182.343 8  94918590.974 5  23180082.713 5  23180084.690 5
 124145877.896 7  96737031.851 5  23624174.530 5  23624176.394 5
 18 01 01 00 43 30.0000000  0 10G05G16G18G20G21G25G26G27G29G31       0.000000000
 129768661.166 6 101118425.067 3  24694146.679 3  24694148.379 3
 110537109.700 8  86132785.613 6  21034508.007 6  21034510.130 6
 126253139.371 7  98379060.491 3  24025170.529 3  24025172.105 3
 119390670.475 7  93031687.234 4  22719284.486 4  22719285.918 4
 111358967.179 7  86773214.194 6  21190901.490 6  21190903.160 6
 136380783.070 6 106270743.928 2  25952400.551 2  25952398.596 2
 107070860.171 8  83431842.027 7  20374904.924 7  20374903.034 7
 119365072.193 7  93011743.573 5  22714413.596 5  22714412.766 5
 121904754.839 7  94990725.365 5  23197699.305 5  23197700.488 5
 124249608.994 7  96817861.268 5  23643913.944 5  23643915.796 5
 18 01 01 00 44 00.0000000  0 10G05G16G18G20G21G25G26G27G29G31       0.000000000
 129826158.948 6 101163228.538 3  24705087.916 3  24705090.034 3
 110478842.534 8  86087382.621 6  21023420.194 6  21023422.277 6
 126168250.917 7  98312913.645 3  24009017.571 3  24009018.924 3
 119365037.956 7  93011713.847 4  22714407.027 4  22714407.812 4
 111364688.242 8  86777672.161 6  21191990.254 6  21191992.046 6
 136491641.797 6 106357127.354 2  25973495.923 2  25973494.464 2
 107071578.035 8  83432401.391 7  20375041.510 7  20375039.837 7
 119276971.001 7  92943093.299 5  22697648.137 5  22697647.620 5
 121997438.605 7  95062946.426 5  23215336.780 5  23215337.536 5
 124353493.883 7  96898810.536 5  23663682.799 5  23663684.616 5
 18 01 01 00 44 30.0000000  0 10G05G16G18G20G21G25G26G27G29G31       0.000000000
 129884148.312 6 101208415.047 3  24716122.763 3  24716125.766 3
 110420969.148 8  86042286.481 6  21012407.290 6  21012409.103 6
 126083497.920 6  98246872.339 3  23992888.969 3  23992890.583 3
 119339968.802 7  92992179.453 4  22709636.647 4  22709637.345 4
 111370869.838 7  86782488.992 6  21193166.649 6  21193168.199 6
 136602523.590 6 106443528.749 2  25994596.003 2  25994595.108 2
 107072803.443 8  83433356.251 7  20375274.843 7  20375273.053 7
 119189063.476 7  92874593.939 5  22680920.034 5  22680919.100 5
 122090232.357 7  95135253.214 5  23232994.251 5  23232996.020 5
 124457529.728 7  96979877.439 5  23683480.220 5  23683481.495 5
 18 01 01 00 45 00.0000000  0 10G05G16G18G20G21G25G26G27G29G31       0.000000000
 129942627.468 6 101253983.235 3  24727251.491 3  24727253.710 3
 110363491.466 8  85997498.674 6  21001469.679 6  21001471.309 6
 125998882.490 6  98180938.267 3  23976787.175 3  23976788.512 3
 119315464.187 7  92973084.965 4  22704973.599 4  22704974.195 4
 111377510.717 7  86787663.708 6  21194430.320 6  21194431.834 6
 136713427.295 6 106529947.237 2  26015700.196 2  26015698.871 2
 107074536.995 8  83434707.062 7  20375604.755 7  20375602.902 7
 119101350.606 7  92806246.276 5  22664229.171 5  22664228.522 5
 122183134.653 7  95207644.618 5  23250672.431 5  23250674.412 5
 124561713.798 7  97061059.828 4  23703305.690 4  23703307.181 4
 18 01 01 00 45 30.0000000  0 10G05G16G18G20G21G25G26G27G29G31       0.000000000
 130001594.482 6 101299931.581 3  24738472.836 3  24738474.073 3
 110306411.135 8  85953020.505 6  20990607.526 6  20990609.057 6
 125914407.980 7  98115113.984 3  23960712.729 3  23960714.112 3
 119291525.269 7  92954431.295 5  22700418.200 5  22700419.153 5
 111384610.019 7  86793195.637 6  21195781.108 6  21195783.265 6
 136824351.811 6 106616381.937 2  26036808.352 2  26036807.420 2
 107076779.280 8  83436454.291 7  20376031.437 7  20376029.730 7
 119013833.258 7  92738050.950 5  22647574.769 5  22647574.085 5
 122276144.872 8  95280120.073 5  23268371.931 5  23268373.533 5
 124666043.461 7  97142355.677 5  23723158.639 5  23723160.812 5
 18 01 01 00 46 00.0000000  0 10G05G16G18G20G21G25G26G27G29G31       0.000000000
 130061047.439 6 101346258.549 3  24749785.907 3  24749788.651 3
 110249730.013 8  85908853.396 6  20979821.517 6  20979823.323 6
 125830076.966 7  98049401.514 3  23944665.109 3  23944666.093 3
 119268153.293 7  92936219.359 4  22695970.443 4  22695971.439 4
 111392166.803 7  86799084.046 6  21197218.963 6  21197220.876 6
 136935295.837 5 106702831.881 1  26057920.501 1  26057919.311 1
 107079530.790 8  83438598.329 7  20376555.109 7  20376553.039 7
 118926512.330 7  92670008.685 5  22630957.885 5  22630957.343 5
 122369262.241 7  95352679.043 5  23286091.791 5  23286093.464 5
 124770515.968 7  97223762.853 4  23743039.084 4  23743040.873 4
 18 01 01 00 46 30.0000000  0 10G05G16G18G20G21G25G26G27G29G31       0.000000000
 130120984.025 7 101392962.338 3  24761191.634 3  24761193.694 3
 110193450.155 8  85864998.950 6  20969111.721 6  20969113.736 6
 125745891.826 7  97983802.721 3  23928645.172 3  23928646.777 3
 119245349.823 7  92918450.437 4  22691630.903 4  22691632.304 4
 111400180.661 7  86805328.618 6  21198743.943 6  21198745.940 6
 137046257.881 5 106789295.881 1  26079035.825 1  26079034.382 1
 107082792.123 8  83441139.622 7  20377175.645 7  20377173.761 7
 118839388.712 7  92602120.164 5  22614379.201 5  22614378.408 5
 122462485.495 7  95425320.519 5  23303831.451 5  23303833.108 5
 124875128.482 7  97305279.077 4  23762946.238 4  23762947.857 4
 18 01 01 00 47 00.0000000  0  9G05G16G18G20G21G26G27G29G31          0.000000000
 130181402.458 6 101440041.646 3  24772688.846 3  24772690.665 3
 110137573.167 8  85821458.436 6  20958478.748 6  20958480.749 6
 125661855.304 7  97918319.712 3  23912653.765 3  23912654.950 3
 119223116.066 7  92901125.437 5  22687399.483 5  22687401.244 5
 111408650.497 8  86811928.489 6  21200355.600 6  21200357.541 6
 107086563.743 8  83444078.543 7  20377893.341 7  20377891.465 7
 118752463.348 7  92534386.151 5  22597837.958 5  22597837.082 5
 122555813.463 7  95498043.584 5  23321591.520 5  23321593.154 5
 124979878.461 7  97386902.438 4  23782879.569 4  23782881.225 4
 18 01 01 00 47 30.0000000  0  9G05G16G18G20G21G26G27G29G31          0.000000000
 130242300.638 6 101487494.779 3  24784277.280 3  24784279.584 3
 110082100.672 8  85778233.131 6  20947922.687 6  20947924.600 6
 125577969.832 7  97852954.425 3  23896690.685 3  23896692.054 3
 119201453.163 7  92884245.287 5  22683277.286 5  22683278.735 5
 111417575.544 8  86818883.084 6  21202054.137 6  21202056.048 6
 107090846.175 8  83447415.490 7  20378708.334 7  20378706.313 7
 118665737.122 7  92466807.299 5  22581334.406 5  22581333.581 5
 122649245.055 7  95570847.372 5  23339371.026 5  23339372.641 5
 125084762.898 7  97468630.590 4  23802838.052 4  23802840.107 4
 18 01 01 00 48 00.0000000  0  9G05G16G18G20G21G26G27G29G31          0.000000000
 130303676.687 6 101535320.258 3  24795956.890 3  24795959.045 3
 110027034.950 8  85735324.766 6  20937443.896 6  20937446.155 6
 125494238.174 7  97787709.000 3  23880756.518 3  23880758.066 3
 119180362.362 7  92867810.899 4  22679264.246 4  22679265.206 4
 111426954.962 7  86826191.722 6  21203839.030 6  21203841.175 6
 107095639.908 8  83451150.867 7  20379620.635 7  20379618.335 7
 118579210.989 7  92399384.355 5  22564868.636 5  22564868.355 5
 122742779.145 7  95643731.046 5  23357169.439 5  23357171.425 5
 125189779.301 7  97550461.552 4  23822822.310 4  23822824.177 4
 18 01 01 00 48 30.0000000  0  9G05G16G18G20G21G26G27G29G31          0.000000000
 130365528.446 6 101583516.412 2  24807727.278 2  24807729.228 2
 109972377.868 8  85692734.834 6  20927043.166 6  20927045.088 6
 125410663.057 7  97722585.542 3  23864852.674 3  23864854.863 3
 119159844.466 7  92851822.943 4  22675359.885 4  22675361.059 4
 111436788.235 8  86833854.013 6  21205710.279 6  21205712.052 6
 107100945.436 8  83455285.035 7  20380630.318 7  20380628.470 7
 118492885.786 7  92332117.973 5  22548441.450 5  22548440.828 5
 122836414.835 7  95716693.878 5  23374988.305 5  23374989.734 5
 125294924.936 7  97632393.219 4  23842830.975 4  23842832.425 4
 18 01 01 00 49 00.0000000  0  9G05G16G18G20G21G26G27G29G31          0.000000000
 130427854.069 6 101632081.799 2  24819587.282 2  24819588.849 2
 109918130.884 8  85650464.461 6  20916720.398 6  20916722.423 6
 125327246.570 7  97657585.678 3  23848979.219 3  23848980.751 3
 119139900.680 7  92836282.340 4  22671564.922 4  22671566.231 4
 111447074.287 8  86841869.126 6  21207667.651 6  21207669.272 6
 107106763.159 8  83459818.322 7  20381737.331 7  20381735.463 7
 118406762.445 7  92265008.891 5  22532052.583 5  22532052.095 5
 122930150.850 7  95789734.879 5  23392826.041 5  23392827.809 5
 125400197.058 7  97714423.416 4  23862863.580 4  23862865.697 4
 18 01 01 00 49 30.0000000  0  9G05G16G18G20G21G26G27G29G31          0.000000000
 130490651.260 6 101681014.689 2  24831536.723 2  24831538.891 2
 109864295.949 8  85608515.153 6  20906475.835 6  20906477.817 6
 125243991.977 7  97592711.977 3  23833136.551 3  23833138.011 3
 119120532.395 7  92821190.206 4  22667878.668 4  22667880.165 4
 111457812.287 8  86850236.403 6  21209711.044 6  21209712.837 6
 107113093.606 8  83464751.127 7  20382941.735 7  20382939.991 7
 118320841.848 7  92198057.829 5  22515702.850 5  22515701.935 5
 123023986.438 8  95862853.499 4  23410681.744 4  23410683.525 4
 125505592.749 7  97796549.945 4  23882919.344 4  23882921.654 4
 18 01 01 00 50 00.0000000  0  9G05G16G18G20G21G26G27G29G31          0.000000000
 130553918.023 6 101730313.434 2  24843576.079 2  24843578.437 2
 109810874.887 8  85566888.358 6  20896310.160 6  20896311.839 6
 125160901.550 7  97527966.227 4  23817325.591 4  23817326.319 4
 119101740.430 7  92806547.114 5  22664302.711 5  22664303.984 5
 111469000.917 7  86858954.823 6  21211840.198 6  21211841.961 6
 107119937.147 8  83470083.751 7  20384243.975 7  20384242.086 7
 118235124.929 7  92131265.436 5  22499391.641 5  22499390.794 5
 123117920.165 7  95936048.581 5  23428556.872 5  23428558.750 5
 125611109.433 7  97878770.740 4  23902998.682 4  23903000.408 4
 18 01 01 00 50 30.0000000  0  9G05G16G18G20G21G26G27G29G31          0.000000000
 130617652.172 6 101779976.377 2  24855704.479 2  24855707.369 2
 109757869.524 8  85525585.479 6  20886223.677 6  20886225.337 6
 125077978.215 7  97463350.637 3  23801545.324 3  23801547.128 3
 119083526.025 7  92792354.085 5  22660837.083 5  22660837.996 5
 111480639.970 7  86868024.227 6  21214055.118 6  21214057.024 6
 107127294.232 8  83475816.544 7  20385643.928 7  20385642.126 7
 118149612.583 7  92064632.466 5  22483118.978 5  22483118.321 5
 123211951.355 7  96009319.608 5  23446450.137 5  23446452.198 5
 125716744.412 7  97961083.696 4  23923100.436 4  23923102.678 4
 18 01 01 00 51 00.0000000  0  9G05G16G18G20G21G26G27G29G31          0.000000000
 130681851.678 5 101830001.908 2  24867921.363 2  24867923.267 2
 109705281.481 8  85484607.793 6  20876216.463 6  20876218.339 6
 124995224.529 7  97398867.249 3  23785797.553 3  23785798.644 3
 119065890.093 7  92778611.830 5  22657480.849 5  22657482.201 5
 111492728.039 8  86877443.509 6  21216355.451 6  21216357.042 6
 107135165.239 8  83481949.782 7  20387141.828 7  20387140.041 7
 118064305.690 7  91998159.580 5  22466885.682 5  22466884.578 5
 123306078.693 7  96082665.522 5  23464362.424 5  23464364.128 5
 125822494.964 7  98043486.705 4  23943224.348 4  23943226.130 4
 18 01 01 00 51 30.0000000  0  9G05G16G18G20G21G26G27G29G31          0.000000000
 130746514.310 5 101880388.309 1  24880226.083 1  24880227.886 1
 109653112.588 8  85443956.702 6  20866288.974 6  20866291.460 6
 124912642.938 7  97334517.972 4  23770083.176 4  23770085.223 4
 119048833.649 7  92765321.100 5  22654235.242 5  22654236.237 5
 111505264.155 8  86887211.914 6  21218740.784 6  21218742.682 6
 107143550.538 8  83488483.783 7  20388737.575 7  20388735.861 7
 117979205.161 7  91931847.522 5  22450691.272 5  22450690.861 5
 123400301.284 7  96156085.699 5  23482292.799 5  23482294.093 5
 125928358.218 7  98125977.563 4  23963368.828 4  23963371.314 4
 18 01 01 00 52 00.0000000  0  7G16G18G20G21G26G29G31                0.000000000
 109601364.662 8  85403633.644 6  20856441.817 6  20856443.735 6
 124830236.045 7  97270304.844 3  23754401.625 3  23754403.193 3
 119032357.937 7  92752482.901 4  22651099.758 4  22651100.857 4
 111518248.032 8  86897329.209 6  21221211.422 6  21221213.305 6
 107152450.538 8  83495418.846 7  20390431.243 7  20390429.507 7
 123494618.367 7  96229579.502 4  23500240.666 4  23500242.011 4
 126034331.783 7  98208554.372 4  23983535.292 4  23983537.354 4
 18 01 01 00 52 30.0000000  0  8G16G18G20G21G26G27G29G31             0.000000000
 109550039.627 8  85363640.106 6  20846674.854 6  20846676.839 6
 124748006.231 7  97206229.659 4  23738753.982 4  23738755.184 4
 119016463.617 7  92740097.737 4  22648074.974 4  22648076.473 4
 111531678.447 8  86907794.481 6  21223767.058 6  21223769.103 6
 107161865.590 8  83502755.240 7  20392222.914 7  20392220.948 7
 117809626.932 7  91799708.677 5  22418421.427 5  22418420.631 5
 123589028.542 7  96303145.822 4  23518206.242 4  23518207.724 4
 126140412.788 7  98291214.867 4  24003722.029 4  24003723.709 4
 18 01 01 00 53 00.0000000  0  8G16G18G20G21G26G27G29G31             0.000000000
 109499139.202 8  85323977.439 6  20836988.761 6  20836990.788 6
 124665956.577 7  97142294.892 3  23723139.926 3  23723141.065 3
 119001151.607 7  92728166.322 5  22645161.636 5  22645162.559 5
 111545553.567 8  86918606.262 6  21226407.573 6  21226409.322 6
 107171796.013 8  83510493.227 7  20394112.510 7  20394110.589 7
 117725150.992 7  91733883.277 5  22402346.561 5  22402345.683 5
 123683530.950 7  96376784.022 4  23536188.975 4  23536190.962 4
 126246598.400 7  98373956.907 4  24023928.402 4  24023930.487 4
 18 01 01 00 53 30.0000000  0  8G16G18G20G21G26G27G29G31             0.000000000
 109448665.149 8  85284647.024 6  20827383.917 6  20827386.211 6
 124584089.576 7  97078502.408 4  23707560.824 4  23707562.663 4
 118986423.186 7  92716689.651 5  22642358.510 5  22642359.584 5
 111559873.591 8  86929764.736 6  21229132.638 6  21229134.373 6
 107182242.116 8  83518633.040 7  20396100.227 7  20396098.794 7
 117640885.016 7  91668221.482 5  22386311.551 5  22386310.551 5
 123778124.456 7  96450493.244 4  23554189.196 4  23554191.421 4
 126352886.097 7  98456778.479 4  24044154.051 4  24044156.353 4
 18 01 01 00 54 00.0000000  0  8G16G18G20G21G26G27G29G31             0.000000000
 109398619.183 8  85245650.161 6  20817860.438 6  20817862.303 6
 124502407.754 7  97014854.258 4  23692017.701 4  23692018.763 4
 118972278.925 7  92705668.162 5  22639666.696 5  22639668.216 5
 111574636.978 8  86941268.679 6  21231942.091 6  21231943.916 6
 107193204.238 8  83527174.946 7  20398186.382 7  20398184.487 7
 117556829.939 7  91602724.048 5  22370315.877 5  22370315.249 5
 123872808.250 7  96524272.797 4  23572207.680 4  23572208.893 4
 126459272.916 7  98539677.318 4  24064398.723 4  24064400.665 4
 18 01 01 00 54 30.0000000  0  8G16G18G20G21G26G27G29G31             0.000000000
 109349003.055 8  85206988.238 6  20808418.867 6  20808420.656 6
 124420913.888 7  96951352.544 4  23676509.917 4  23676511.467 4
 118958719.748 7  92695102.586 5  22637086.673 5  22637087.848 5
 111589842.872 8  86953117.436 6  21234835.826 6  21234837.398 6
 107204682.657 8  83536119.164 7  20400370.680 7  20400368.804 7
 117472986.691 7  91537391.661 5  22354360.851 5  22354360.660 5
 123967581.360 7  96598121.963 4  23590242.395 4  23590244.060 4
 126565756.692 7  98622651.655 4  24084662.239 4  24084663.724 4
 18 01 01 00 55 00.0000000  0  8G16G18G20G21G26G27G29G31             0.000000000
 109299818.504 8  85168662.610 6  20799059.564 6  20799061.027 6
 124339610.004 7  96887998.858 4  23661038.465 4  23661039.918 4
 118945746.626 7  92684993.667 5  22634618.216 5  22634619.236 5
 111605490.506 8  86965310.395 6  21237813.457 6  21237815.131 6
 107216677.648 8  83545465.910 7  20402653.193 7  20402651.213 7
 117389356.158 7  91472225.019 6  22338447.285 6  22338446.049 6
 124062442.784 7  96672039.927 4  23608293.826 4  23608295.450 4
 126672334.278 7  98705699.105 4  24104943.010 4  24104945.878 4
 18 01 01 00 55 30.0000000  0  8G16G18G20G21G26G27G29G31             0.000000000
 109251067.249 8  85130674.642 6  20789782.584 6  20789784.070 6
 124258499.032 7  96824795.515 4  23645603.622 4  23645604.807 4
 118933360.171 7  92675341.901 5  22632261.000 5  22632262.264 5
 111621578.497 8  86977846.498 6  21240874.882 6  21240876.634 6
 107229189.494 8  83555215.400 7  20405034.055 7  20405032.196 7
 117305939.230 7  91407224.840 5  22322573.463 5  22322572.541 5
 124157391.089 7  96746025.576 4  23626361.967 4  23626363.206 4
 126779002.776 7  98788817.406 4  24125241.391 4  24125243.990 4
 18 01 01 00 56 00.0000000  0  9G10G16G18G20G21G26G27G29G31          0.000000000
 135365540.96816 105479653.83911  25759207.841 1  25759206.509 1
 109202751.016 8  85093025.631 6  20780588.011 6  20780590.194 6
 124177583.659 7  96761744.599 4  23630205.908 4  23630207.003 4
 118921561.316 7  92666148.016 5  22630016.094 5  22630017.071 5
 111638105.621 8  86990724.788 6  21244019.622 6  21244021.589 6
 107242218.427 8  83565367.807 7  20407513.270 7  20407511.805 7
 117222736.852 7  91342391.842 5  22306740.083 5  22306739.664 5
 124252425.619 8  96820078.415 4  23644446.456 4  23644448.044 4
 126885759.796 7  98872004.704 4  24145556.701 4  24145558.821 4
 18 01 01 00 56 30.0000000  0  9G10G16G18G20G21G26G27G29G31          0.000000000
 135260941.267 6 105398147.652 1  25739301.729 1  25739302.655 1
 109154871.900 8  85055717.223 6  20771476.727 6  20771478.897 6
 124096866.533 7  96698848.147 4  23614845.580 4  23614847.337 4
 118910350.725 7  92657412.530 5  22627882.674 5  22627883.835 5
 111655071.313 8  87003944.808 6  21247247.995 6  21247249.876 6
 107255764.669 8  83575923.306 7  20410090.973 7  20410089.699 7
 117139749.861 7  91277726.690 5  22290947.707 5  22290947.455 5
 124347545.437 8  96894197.760 4  23662547.356 4  23662548.506 4
 126992602.591 7  98955258.819 4  24165887.975 4  24165890.183 4
 18 01 01 00 57 00.0000000  0  9G10G16G18G20G21G26G27G29G31          0.000000000
 135156223.634 5 105316549.494 1  25719373.613 1  25719373.859 1
 109107431.391 8  85018750.583 6  20762449.201 6  20762451.356 6
 124016350.075 7  96636108.062 4  23599524.469 4  23599525.123 4
 118899729.357 7  92649136.144 5  22625861.384 5  22625862.307 5
 111672474.707 8  87017505.908 6  21250559.813 6  21250561.746 6
 107269828.426 8  83586882.074 7  20412767.324 7  20412765.874 7
 117056979.200 7  91213230.089 5  22275197.709 5  22275196.687 5
 124442749.476 7  96968382.689 4  23680664.256 4  23680665.270 4
 127099528.368 7  99038577.614 4  24186235.190 4  24186237.742 4
 18 01 01 00 57 30.0000000  0  9G10G16G18G20G21G26G27G29G31          0.000000000
 135051390.029 5 105234861.038 2  25699424.099 2  25699425.192 2
 109060431.167 8  84982127.025 6  20753505.352 6  20753507.568 6
 123936036.964 7  96573526.430 4  23584240.297 4  23584242.440 4
 118889697.837 7  92641319.391 5  22623952.462 5  22623953.752 5
 111690314.596 8  87031407.111 6  21253954.727 6  21253956.411 6
 107284409.943 8  83598244.288 7  20415542.279 7  20415540.292 7
 116974425.753 7  91148902.743 6  22259487.740 6  22259487.428 6
 124538037.021 7  97042632.688 4  23698796.515 4  23698798.175 4
 127206534.404 7  99121958.926 4  24206597.734 4  24206600.211 4
 18 01 01 00 58 00.0000000  0  9G10G16G18G20G21G26G27G29G31          0.000000000
 134946443.082 6 105153084.142 1  25679453.086 1  25679455.107 1
 109013872.864 8  84945847.839 6  20744645.887 6  20744647.559 6
 123855929.694 7  96511105.188 4  23568996.836 4  23568998.095 4
 118880256.945 7  92633962.873 5  22622155.446 5  22622157.021 5
 111708589.579 8  87045647.378 6  21257432.544 6  21257434.151 6
 107299509.384 8  83610010.082 7  20418415.819 7  20418413.786 7
 116892090.389 7  91084745.333 5  22243819.797 5  22243819.402 5
 124633406.855 7  97116946.809 4  23716944.264 4  23716946.615 4
 127313618.217 7  99205400.869 4  24226974.685 4  24226977.597 4
 18 01 01 00 58 30.0000000  0  9G10G16G18G20G21G26G27G29G31          0.000000000
 134841385.046 6 105071220.751 2  25659462.653 2  25659463.447 2
 108967758.283 8  84909914.401 6  20735870.592 6  20735872.335 6
 123776030.953 7  96448846.438 4  23553792.671 4  23553794.018 4
 118871407.205 7  92627066.979 5  22620471.451 5  22620472.847 5
 111727298.925 8  87060226.087 6  21260992.877 6  21260994.314 6
 107315126.923 8  83622179.593 7  20421387.695 7  20421385.927 7
 116809974.090 7  91020758.617 5  22228193.644 5  22228193.683 5
 124728857.932 7  97191324.217 4  23735108.174 4  23735109.856 4
 127420777.101 7  99288901.284 4  24247366.648 4  24247369.605 4
 18 01 01 00 59 00.0000000  0  9G10G16G18G20G21G26G27G29G31          0.000000000
 134736217.739 6 104989272.350 1  25639450.550 1  25639449.667 1
 108922089.152 8  84874328.055 6  20727180.042 6  20727181.850 6
 123696343.206 7  96386752.105 4  23538628.406 4  23538630.061 4
 118863149.435 7  92620632.364 5  22618900.195 5  22618901.250 5
 111746440.730 8  87075141.780 6  21264635.439 6  21264637.040 6
 107331262.673 8  83634752.890 7  20424458.144 7  20424456.285 7
 116728077.701 7  90956943.254 5  22212609.687 5  22212609.058 5
 124824389.188 7  97265764.129 4  23753287.314 4  23753289.031 4
 127528008.334 7  99372458.095 4  24267772.544 4  24267775.051 4
 18 01 01 00 59 30.0000000  0  9G10G16G18G20G21G26G27G29G31          0.000000000
 134630944.081 6 104907240.779 2  25619417.694 2  25619416.678 2
 108876867.090 8  84839090.079 6  20718574.517 6  20718576.539 6
 123616869.289 7  96324824.372 4  23523505.083 4  23523506.740 4
 118855484.064 7  92614659.380 5  22617441.560 5  22617442.684 5
 111766014.678 8  87090394.216 6  21268360.059 6  21268361.650 6
 107347916.784 8  83647730.116 7  20427627.134 7  20427625.502 7
 116646402.104 7  90893299.944 6  22197067.440 6  22197066.837 6
 124920000.072 7  97340266.079 4  23771481.881 4  23771483.317 4
 127635309.259 7  99456069.194 4  24288191.234 4  24288193.097 4
 18 01 01 01 00 00.0000000  0  9G10G16G18G20G21G26G27G29G31          0.000000000
 134525566.313 6 104825128.308 2  25599365.740 2  25599363.368 2
 108832093.747 8  84804201.769 6  20710054.108 6  20710056.026 6
 123537611.674 7  96263065.197 4  23508423.324 4  23508424.409 4
 118848411.587 7  92609148.384 5  22616095.790 5  22616097.034 5
 111786019.909 8  87105982.708 6  21272166.916 6  21272168.546 6
 107365089.391 8  83661111.370 7  20430894.969 7  20430893.433 7
 116564948.323 7  90829829.479 5  22181567.119 5  22181566.481 5
 125015689.329 8  97414829.111 4  23789691.473 4  23789692.052 4
 127742676.829 7  99539732.211 4  24308622.292 4  24308625.300 4
 18 01 01 01 00 30.0000000  0  9G10G16G18G20G21G26G27G29G31          0.000000000
 134420086.632 6 104742936.385 3  25579293.695 3  25579290.944 3
 108787770.876 8  84769664.469 6  20701619.729 6  20701621.727 6
 123458572.693 7  96201476.400 4  23493382.588 4  23493383.881 4
 118841932.828 7  92604100.006 5  22614862.847 5  22614864.177 5
 111806454.828 8  87121906.032 6  21276055.574 6  21276057.134 6
 107382780.595 8  83674896.719 7  20434261.537 7  20434259.717 7
 116483717.133 7  90766532.484 5  22166109.181 5  22166108.457 5
 125111456.310 7  97489452.732 4  23807915.289 4  23807916.025 4
 127850108.397 7  99623445.131 4  24329066.130 4  24329068.520 4
 18 01 01 01 01 00.0000000  0  9G10G16G18G20G21G26G27G29G31          0.000000000
 134314507.412 6 104660666.747 2  25559202.011 2  25559200.548 2
 108743900.408 8  84735479.692 6  20693271.559 6  20693273.544 6
 123379754.707 7  96140059.773 4  23478383.585 4  23478386.161 4
 118836048.220 7  92599514.614 5  22613743.184 5  22613744.266 5
 111827317.986 8  87138163.039 6  21280025.507 6  21280027.347 6
 107400990.500 8  83689086.246 7  20437726.731 7  20437725.414 7
 116402709.519 7  90703409.677 6  22150693.535 6  22150693.323 6
 125207299.941 7  97564136.061 4  23826153.714 4  23826154.247 4
 127957601.847 7  99707206.244 4  24349521.375 4  24349523.466 4
 18 01 01 01 01 30.0000000  0  9G10G16G18G20G21G26G27G29G31          0.000000000
 134208831.363 6 104578321.862 2  25539092.306 2  25539090.557 2
 108700483.829 8  84701648.574 6  20685009.883 6  20685011.845 6
 123301160.817 7  96078817.787 4  23463427.801 4  23463429.301 4
 118830758.456 7  92595392.737 5  22612736.027 5  22612737.582 5
 111848608.889 7  87154753.359 6  21284077.083 6  21284078.971 6
 107419719.135 8  83703679.982 7  20441290.686 7  20441289.052 7
 116321926.338 7  90640461.767 5  22135321.179 5  22135320.592 5
 125303219.028 7  97638878.173 4  23844406.041 4  23844407.647 4
 128065154.359 7  99791013.406 4  24369987.759 4  24369990.540 4
 18 01 01 01 02 00.0000000  0  9G10G16G18G20G21G26G27G29G31          0.000000000
 134103060.603 6 104495903.119 2  25518963.798 2  25518962.060 2
 108657522.521 8  84668172.233 6  20676834.742 6  20676836.554 6
 123222793.462 7  96017752.331 4  23448514.819 4  23448516.736 4
 118826063.984 7  92591734.724 5  22611842.633 5  22611844.197 5
 111870325.872 8  87171675.688 6  21288209.645 6  21288211.576 6
 107438966.590 8  83718677.988 7  20444953.339 7  20444951.907 7
 116241368.525 7  90577689.459 5  22119991.719 5  22119991.172 5
 125399212.920 7  97713678.593 4  23862673.008 4  23862674.624 4
 128172763.223 7  99874864.461 4  24390465.005 4  24390467.360 4
 18 01 01 01 02 30.0000000  0  9G10G16G18G20G21G26G27G29G31          0.000000000
 133997197.954 6 104413412.797 3  25498818.946 3  25498818.581 3
 108615018.262 8  84635052.031 6  20668746.345 6  20668748.030 6
 123144655.113 7  95956865.295 4  23433645.807 4  23433647.469 4
 118821964.997 7  92588540.722 5  22611063.081 5  22611064.416 5
 111892468.399 8  87188929.612 6  21292423.237 6  21292425.169 6
 107458732.879 8  83734080.294 7  20448714.550 7  20448712.924 7
 116161036.950 7  90515093.442 6  22104705.034 6  22104704.822 6
 125495280.744 7  97788536.602 4  23880954.991 4  23880955.457 4
 128280425.315 7  99958756.987 4  24410952.593 4  24410955.072 4
 18 01 01 01 03 00.0000000  0  9G10G16G18G20G21G26G27G29G31          0.000000000
 133891245.693 6 104330852.570 2  25478656.874 2  25478655.644 2
 108572972.974 8  84602289.472 6  20660745.253 6  20660747.524 6
 123066748.197 7  95896158.639 4  23418820.799 4  23418822.024 4
 118818462.018 7  92585811.146 5  22610396.649 5  22610397.432 5
 111915035.111 8  87206514.069 6  21296717.555 6  21296719.550 6
 107479018.051 8  83749886.920 7  20452574.624 7  20452572.978 7
 116080932.556 7  90452674.440 6  22089461.577 6  22089461.143 6
 125591421.276 7  97863451.271 4  23899249.879 4  23899250.506 4
 128388138.443 7 100042689.298 4  24431449.979 4  24431451.901 4
 18 01 01 01 03 30.0000000  0  9G10G16G18G20G21G26G27G29G31          0.000000000
 133785206.276 6 104248224.426 3  25458478.426 3  25458477.574 3
 108531388.069 8  84569885.645 6  20652831.792 6  20652833.975 6
 122989075.155 7  95835634.152 4  23404039.838 4  23404041.765 4
 118815555.797 7  92583546.580 5  22609843.473 5  22609844.579 5
 111938024.625 8  87224427.973 6  21301092.246 6  21301093.944 6
 107499822.086 8  83766097.852 7  20456533.575 7  20456532.314 7
 116001056.226 7  90390433.174 6  22074262.076 6  22074261.335 6
 125687633.667 7  97938421.963 4  23917557.663 4  23917558.953 4
 128495899.819 7 100126659.177 4  24451956.714 4  24451958.389 4
 18 01 01 01 04 00.0000000  0  9G10G16G18G20G21G26G27G29G31          0.000000000
 133679082.227 5 104165530.379 2  25438284.440 2  25438283.176 2
 108490265.177 8  84537841.841 6  20645006.470 6  20645008.361 6
 122911638.587 7  95775293.996 4  23389304.061 4  23389305.415 4
 118813246.646 7  92581747.252 5  22609404.543 5  22609405.271 5
 111961435.477 8  87242670.209 6  21305547.185 6  21305549.183 6
 107521145.008 8  83782713.095 7  20460591.416 7  20460589.822 7
 115921408.866 8  90328370.307 6  22059105.735 6  22059104.975 6
 125783917.316 7  98013448.177 4  23935880.190 4  23935881.044 4
 128603706.658 7 100210664.529 4  24472471.307 4  24472473.376 4
 18 01 01 01 04 30.0000000  0  9G10G16G18G20G21G26G27G29G31          0.000000000
 133572876.266 6 104082772.488 3  25418073.408 3  25418073.352 3
 108449606.010 8  84506159.375 6  20637269.230 6  20637271.238 6
 122834441.462 7  95715140.401 4  23374614.509 4  23374615.319 4
 118811534.776 7  92580413.358 5  22609078.034 5  22609079.179 5
 111985266.725 8  87261240.009 6  21310082.108 6  21310083.839 6
 107542986.761 8  83799732.635 7  20464747.830 7  20464746.177 7
 115841991.353 8  90266486.549 6  22043992.196 6  22043992.197 6
 125880271.465 7  98088529.291 4  23954216.155 4  23954216.960 4
 128711556.612 7 100294703.457 4  24492994.217 4  24492996.094 4
 18 01 01 01 05 00.0000000  0  9G10G16G18G20G21G26G27G29G31          0.000000000
 133466590.552 6 103999952.479 3  25397847.786 3  25397846.877 3
 108409411.878 8  84474839.283 6  20629620.632 6  20629622.537 6
 122757485.979 7  95655175.083 4  23359970.638 4  23359971.169 4
 118810420.542 7  92579545.132 5  22608866.084 5  22608867.298 5
 112009517.122 8  87280136.426 6  21314696.961 6  21314698.737 6
 107565347.338 8  83817156.455 7  20469003.012 7  20469001.274 7
 115762804.638 8  90204782.622 6  22028923.597 6  22028923.502 6
 125976694.674 7  98163664.262 4  23972564.573 4  23972565.766 4
 128819446.864 7 100378773.774 4  24513524.853 4  24513527.662 4
 18 01 01 01 05 30.0000000  0  9G10G16G18G20G21G26G27G29G31          0.000000000
 133360227.962 6 103917072.498 3  25377608.386 3  25377607.260 3
 108369684.774 8  84443883.103 6  20622060.813 6  20622062.867 6
 122680774.472 7  95595399.874 4  23345372.065 4  23345373.497 4
 118809904.389 7  92579142.956 5  22608767.458 5  22608768.956 5
 112034185.405 8  87299358.472 6  21319391.101 6  21319392.740 6
 107588226.641 8  83834984.486 7  20473356.696 7  20473354.880 7
 115683849.634 7  90143259.260 6  22013899.705 6  22013898.634 6
 126073185.924 7  98238852.243 4  23990925.895 4  23990927.483 4
 128927374.688 7 100462873.395 4  24534063.190 4  24534065.178 4
 18 01 01 01 06 00.0000000  0 10G08G10G16G18G20G21G26G27G29G31       0.000000000
 133999764.446 5 104415405.74111  25499307.690 1  25499304.878 1
 133253790.773 6 103834134.516 3  25357354.207 3  25357352.968 3
 108330426.019 8  84413291.856 6  20614590.140 6  20614592.383 6
 122604309.625 7  95535816.896 4  23330821.101 4  23330822.816 4
 118809986.474 7  92579206.918 5  22608783.385 5  22608784.580 5
 112059270.986 8  87318905.680 6  21324164.781 6  21324166.392 6
 107611624.599 8  83853216.648 7  20477809.140 7  20477807.339 7
 115605127.207 8  90081917.139 6  21998919.475 6  21998918.393 6
 126169744.644 7  98314092.772 4  24009300.781 4  24009301.760 4
 129035337.627 7 100547000.361 4  24554607.962 4  24554609.736 4
 18 01 01 01 06 30.0000000  0 10G08G10G16G18G20G21G26G27G29G31       0.000000000
 133901116.320 5 104338537.122 1  25480535.130 1  25480533.806 1
 133147281.757 6 103751140.477 3  25337086.296 3  25337085.073 3
 108291637.317 8  84383066.890 6  20607208.645 6  20607210.809 6
 122528094.192 7  95476428.266 4  23316318.292 4  23316319.878 4
 118810667.160 7  92579737.331 5  22608912.562 5  22608914.543 5
 112084772.009 8  87338776.616 6  21329017.337 6  21329019.194 6
 107635541.193 8  83871852.933 7  20482360.371 7  20482358.785 7
 115526638.257 8  90020756.926 6  21983982.663 6  21983982.214 6
 126266369.870 7  98389385.127 4  24027687.896 4  24027688.535 4
 129143332.950 7 100631152.548 4  24575158.689 4  24575160.707 4
 18 01 01 01 07 00.0000000  0 10G08G10G16G18G20G21G26G27G29G31       0.000000000
 133802496.181 5 104261690.276 1  25461768.329 1  25461767.909 1
 133040703.334 6 103668092.330 3  25316805.453 3  25316803.913 3
 108253319.955 8  84353209.210 6  20599917.034 6  20599919.250 6
 122452130.605 7  95417235.872 4  23301863.061 4  23301864.293 4
 118811946.804 7  92580734.493 5  22609156.578 5  22609157.669 5
 112110687.315 8  87358970.366 6  21333948.790 6  21333950.566 6
 107659976.215 8  83890893.199 7  20487010.335 7  20487008.426 7
 115448383.662 8  89959779.357 6  21969091.731 6  21969091.057 6
 126363060.747 7  98464728.598 4  24046087.407 4  24046088.563 4
 129251358.002 7 100715327.936 4  24595715.328 4  24595716.949 4
 18 01 01 01 07 30.0000000  0 10G08G10G16G18G20G21G26G27G29G31       0.000000000
 133703904.933 5 104184866.111 1  25443006.992 1  25443005.197 1
 132934057.985 6 103584992.083 2  25296509.751 2  25296509.014 2
 108215475.713 8  84323720.201 6  20592715.834 6  20592717.556 6
 122376420.952 7  95358241.329 4  23287455.784 4  23287456.980 4
 118813825.457 7  92582198.404 5  22609514.214 5  22609515.191 5
 112137015.507 8  87379485.848 6  21338958.836 6  21338960.829 6
 107684929.585 8  83910337.383 7  20491758.773 7  20491756.901 7
 115370364.440 8  89898985.147 6  21954244.942 6  21954244.196 6
 126459816.594 7  98540122.792 4  24064499.594 4  24064500.588 4
 129359410.115 7 100799524.376 4  24616277.123 4  24616278.777 4
 18 01 01 01 08 00.0000000  0 10G08G10G16G18G20G21G26G27G29G31       0.000000000
 133605342.609 5 104108064.344 1  25424251.094 1  25424249.138 1
 132827348.473 6 103501841.877 3  25276204.739 3  25276202.566 3
 108178106.609 8  84294601.430 6  20585605.016 6  20585606.638 6
 122300968.122 7  95299446.930 4  23273097.104 4  23273099.059 4
 118816303.337 7  92584129.220 5  22609985.384 5  22609986.364 5
 112163755.856 8  87400322.489 6  21344047.391 6  21344049.154 6
 107710401.180 8  83930185.376 7  20496605.824 7  20496604.163 7
 115292581.362 8  89838374.985 6  21939442.991 6  21939442.838 6
 126556636.297 7  98615566.705 4  24082923.860 4  24082924.745 4
 129467486.384 7 100883739.629 4  24636843.681 4  24636845.327 4
 18 01 01 01 08 30.0000000  0 10G08G10G16G18G20G21G26G27G29G31       0.000000000
 133506809.943 6 104031285.639 2  25405501.173 2  25405499.583 2
 132720577.398 6 103418643.623 2  25255887.461 2  25255885.315 2
 108141213.756 7  84265853.741 6  20578584.313 6  20578586.585 6
 122225774.643 7  95240854.617 4  23258787.930 4  23258790.227 4
 118819380.696 7  92586527.170 5  22610571.136 5  22610572.318 5
 112190906.700 8  87421478.992 6  21349214.216 6  21349215.939 6
 107736390.800 8  83950437.034 7  20501551.645 7  20501549.579 7
 115215035.425 8  89777949.595 6  21924686.712 6  21924686.289 6
 126653518.947 7  98691059.673 4  24101360.248 4  24101361.140 4
 129575584.752 7 100967972.112 4  24657414.428 4  24657415.740 4
 18 01 01 01 09 00.0000000  0 10G08G10G16G18G20G21G26G27G29G31       0.000000000
 133408308.202 6 103954531.075 2  25386757.062 2  25386755.496 2
 132613747.420 6 103335399.487 3  25235558.504 3  25235556.543 3
 108104798.328 8  84237478.088 6  20571654.586 6  20571656.254 6
 122150842.463 7  95182465.939 4  23244529.616 4  23244530.959 4
 118823057.708 7  92589392.396 5  22611270.547 5  22611272.011 5
 112218466.811 8  87442954.406 6  21354458.790 6  21354460.285 6
 107762898.324 8  83971092.233 7  20506595.885 7  20506593.977 7
 115137727.486 7  89717709.662 6  21909975.316 6  21909974.825 6
 126750463.623 7  98766600.954 4  24119808.105 4  24119809.173 4
 129683702.235 7 101052219.518 4  24677987.469 4  24677989.746 4
 18 01 01 01 09 30.0000000  0 10G08G10G16G18G20G21G26G27G29G31       0.000000000
 133309837.242 6 103877800.534 2  25368018.794 2  25368016.769 2
 132506860.953 6 103252111.329 3  25215217.866 3  25215217.280 3
 108068862.299 7  84209475.989 6  20564816.272 6  20564818.145 6
 122076174.519 7  95124283.116 4  23230320.539 4  23230322.083 4
 118827334.479 7  92592724.978 5  22612084.149 5  22612085.707 5
 112246434.882 8  87464747.706 6  21359780.736 6  21359782.492 6
 107789923.544 8  83992150.834 7  20511738.600 7  20511736.611 7
 115060658.440 8  89657655.865 6  21895309.512 6  21895308.858 6
 126847469.584 7  98842190.016 4  24138267.437 4  24138268.058 4
 129791836.175 7 101136479.716 4  24698564.798 4  24698567.092 4
 18 01 01 01 10 00.0000000  0 10G08G10G16G18G20G21G26G27G29G31       0.000000000
 133211398.362 5 103801094.898 2  25349286.363 2  25349284.291 2
 132399920.717 6 103168781.301 3  25194867.517 3  25194866.843 3
 108033407.117 8  84181848.582 6  20558069.372 6  20558071.189 6
 122001773.371 7  95066308.194 4  23216162.246 4  23216163.756 4
 118832211.033 7  92596524.899 5  22613012.190 5  22613013.540 5
 112274809.294 8  87486857.641 6  21365180.189 6  21365181.926 6
 107817466.224 8  84013612.656 7  20516979.731 7  20516977.604 7
 114983829.253 8  89597788.988 6  21880689.506 6  21880689.117 6
 126944536.009 7  98917826.190 4  24156739.232 4  24156739.860 4
 129899984.394 7 101220751.047 4  24719144.721 4  24719146.991 4
 18 01 01 01 10 30.0000000  0 10G08G10G16G18G20G21G26G27G29G31       0.000000000
 133112991.864 6 103724414.548 2  25330560.419 2  25330558.468 2
 132292929.274 6 103085411.397 3  25174507.870 3  25174507.298 3
 107998434.354 8  84154597.062 6  20551414.006 6  20551416.098 6
 121927641.224 7  95008542.908 4  23202055.430 4  23202056.864 4
 118837687.586 7  92600792.358 5  22614054.735 5  22614055.953 5
 112303589.402 7  87509283.703 6  21370656.796 6  21370658.900 6
 107845526.160 8  84035477.539 7  20522319.380 7  20522317.520 7
 114907240.756 8  89538109.658 6  21866115.571 6  21866114.784 6
 127041662.096 7  98993508.831 4  24175221.485 4  24175222.114 4
 130008143.538 7 101305030.880 4  24739726.656 4  24739728.477 4
 18 01 01 01 11 00.0000000  0 10G08G10G16G18G20G21G26G27G29G31       0.000000000
 133014618.691 6 103647760.143 3  25311840.883 3  25311838.645 3
 132185889.389 6 103002003.675 3  25154139.272 3  25154138.100 3
 107963945.368 8  84127722.531 6  20544851.005 6  20544853.109 6
 121853780.761 7  94950989.309 4  23188000.450 4  23188001.732 4
 118843764.085 7  92605527.309 5  22615211.151 5  22615212.247 5
 112332773.555 8  87532024.607 6  21376210.421 6  21376211.967 6
 107874103.110 8  84057745.291 7  20527757.441 7  20527755.626 7
 114830893.934 8  89478618.641 6  21851587.574 6  21851586.170 6
 127138846.644 7  99069237.049 4  24193714.730 4  24193714.918 4
 130116311.821 7 101389317.861 4  24760310.344 4  24760312.106 4
 18 01 01 01 11 30.0000000  0 10G08G10G16G18G20G21G26G27G29G31       0.000000000
 132916279.336 6 103571132.139 2  25293127.563 2  25293125.117 2
 132078803.585 6 102918560.149 3  25133761.896 3  25133760.687 3
 107929941.672 7  84101226.149 6  20538380.500 6  20538382.566 6
 121780194.123 7  94893649.068 4  23173997.358 4  23173998.703 4
 118850440.450 7  92610729.678 5  22616481.364 5  22616482.809 5
 112362360.701 7  87555079.524 6  21381840.878 6  21381842.634 6
 107903196.856 8  84080415.721 7  20533293.931 7  20533291.989 7
 114754789.646 8  89419316.625 6  21837104.856 6  21837104.467 6
 127236088.689 7  99145010.059 4  24212219.650 4  24212220.395 4
 130224486.406 7 101473609.719 3  24780895.114 3  24780897.477 3
 18 01 01 01 12 00.0000000  0 10G08G10G16G18G20G21G26G27G29G31       0.000000000
 132817974.323 6 103494530.852 3  25274420.428 3  25274417.777 3
 131971674.472 6 102835082.953 3  25113375.473 3  25113374.785 3
 107896424.679 7  84075109.010 6  20532002.299 6  20532004.170 6
 121706883.954 7  94836524.268 4  23160046.736 4  23160048.177 4
 118857716.742 7  92616399.530 5  22617865.810 5  22617867.359 5
 112392348.990 8  87578447.033 6  21387547.438 6  21387548.866 6
 107932807.122 8  84103488.638 7  20538928.350 7  20538926.530 7
 114678928.796 8  89360204.267 6  21822668.508 6  21822668.501 6
 127333387.768 7  99220827.545 4  24230734.537 4  24230736.157 4
 130332664.644 7 101557904.428 3  24801481.660 3  24801483.328 3
 18 01 01 01 12 30.0000000  0 10G08G10G16G18G20G21G26G27G29G31       0.000000000
 132719704.922 6 103417957.361 3  25255719.999 3  25255717.723 3
 131864504.672 6 102751574.022 3  25092981.082 3  25092980.685 3
 107863396.084 8  84049372.445 6  20525717.049 6  20525719.076 6
 121633852.670 7  94779616.790 4  23146149.278 4  23146150.843 4
 118865592.996 7  92622536.879 5  22619364.510 5  22619366.295 5
 112422737.620 8  87602126.489 6  21393330.109 6  21393331.797 6
 107962933.570 8  84126963.792 7  20544661.028 7  20544659.455 7
 114603312.330 8  89301282.347 6  21808279.368 6  21808279.019 6
 127430743.246 7  99296688.935 4  24249260.876 4  24249262.111 4
 130440843.802 7 101642199.855 3  24822066.685 3  24822069.136 3
 18 01 01 01 13 00.0000000  0 10G08G10G16G18G20G21G26G27G29G31       0.000000000
 132621471.237 6 103341411.688 3  25237026.640 3  25237024.896 3
 131757296.954 6 102668035.588 3  25072579.998 3  25072580.379 3
 107830857.074 7  84024017.367 6  20519525.085 6  20519527.419 6
 121561102.925 7  94722928.694 4  23132305.474 4  23132307.173 4
 118874069.316 7  92629141.820 5  22620977.549 5  22620979.609 5
 112453525.048 8  87626116.690 6  21399188.685 6  21399190.489 6
 107993575.897 8  84150840.937 7  20550492.078 7  20550490.356 7
 114527941.089 8  89242551.544 6  21793937.305 6  21793936.235 6
 127528153.986 7  99372593.416 4  24267797.679 4  24267798.245 4
 130549021.283 7 101726494.011 3  24842651.732 3  24842654.806 3
 18 01 01 01 13 30.0000000  0 10G08G10G16G18G20G21G26G27G29G31       0.000000000
 132523274.234 6 103264894.623 3  25218340.597 3  25218338.890 3
 131650054.045 6 102584469.679 3  25052173.569 3  25052171.838 3
 107798809.148 8  83999044.963 6  20513426.834 6  20513428.649 6
 121488637.045 7  94666461.760 4  23118515.960 4  23118516.883 4
 118883145.372 7  92636214.072 5  22622704.414 5  22622706.481 5
 112484709.869 8  87650416.547 6  21405122.994 6  21405124.771 6
 108024733.831 8  84175119.844 7  20556421.624 7  20556419.396 7
 114452816.038 8  89184012.569 6  21779640.933 6  21779640.501 6
 127625619.277 7  99448540.380 4  24286343.685 4  24286345.995 4
 130657194.512 7 101810784.804 3  24863237.088 3  24863239.212 3
 18 01 01 01 14 00.0000000  0 10G08G10G16G18G20G21G26G27G29G31       0.000000000
 132425114.520 6 103188406.639 3  25199662.057 3  25199659.463 3
 131542778.473 6 102500878.330 3  25031759.771 3  25031757.804 3
 107767254.009 7  83974456.551 6  20507422.174 6  20507424.022 6
 121416457.202 7  94610217.765 4  23104780.674 4  23104782.009 4
 118892820.997 7  92643753.549 5  22624545.725 5  22624547.522 5
 112516290.836 8  87675025.093 6  21411132.550 6  21411134.528 6
 108056407.020 8  84199800.238 7  20562449.031 7  20562446.891 7
 114377938.034 8  89125666.080 6  21765392.179 6  21765391.649 6
 127723137.962 7  99524528.955 4  24304901.795 4  24304902.956 4
 130765361.004 7 101895070.389 3  24883820.825 3  24883822.537 3
 18 01 01 01 14 30.0000000  0 10G08G10G16G18G20G21G26G27G29G31       0.000000000
 132326992.832 7 103111948.190 3  25180989.219 3  25180987.997 3
 131435472.940 6 102417263.599 3  25011339.450 3  25011337.911 3
 107736192.681 8  83950252.912 6  20501511.471 6  20501513.110 6
 121344566.014 7  94554198.656 4  23091099.669 4  23091101.449 4
 118903095.956 7  92651760.019 5  22626501.220 5  22626502.496 5
 112548266.044 8  87699940.842 6  21417217.315 6  21417219.104 6
 108088595.097 8  84224881.839 7  20568574.202 7  20568572.078 7
 114303308.022 8  89067512.824 6  21751190.963 6  21751190.052 6
 127820709.035 7  99600558.371 4  24323469.250 4  24323470.163 4
 130873518.038 7 101979348.621 3  24904402.640 3  24904404.480 3
 18 01 01 01 15 00.0000000  0 10G08G10G16G18G20G21G26G27G29G31       0.000000000
 132228909.625 6 103035519.751 3  25162324.787 3  25162322.828 3
 131328140.063 6 102333627.620 3  24990913.878 3  24990913.702 3
 107705626.707 8  83926435.271 6  20495694.982 6  20495696.744 6
 121272966.333 7  94498406.710 4  23077475.113 4  23077476.324 4
 118913970.656 7  92660233.806 5  22628571.071 5  22628572.121 5
 112580634.842 8  87725163.276 6  21423376.796 6  21423378.784 6
 108121297.702 8  84250364.369 7  20574797.435 7  20574795.242 7
 114228926.863 8  89009553.507 6  21737036.851 6  21737035.984 6
 127918332.747 7  99676628.783 4  24342047.045 4  24342047.150 4
 130981663.255 7 102063617.604 3  24924981.360 3  24924983.243 3
 18 01 01 01 15 30.0000000  0 10G08G10G16G18G20G21G26G27G29G31       0.000000000
 132130865.891 6 102959122.100 3  25143667.608 3  25143665.746 3
 131220782.636 6 102249972.509 3  24970485.043 3  24970484.640 3
 107675557.425 8  83903004.653 6  20489972.852 6  20489974.914 6
 121201660.085 7  94442843.408 4  23063905.224 4  23063907.167 4
 118925444.517 7  92669174.499 4  22630753.938 4  22630755.626 4
 112613396.003 8  87750691.459 6  21429611.070 6  21429612.943 6
 108154514.425 8  84276247.537 7  20581118.167 7  20581116.142 7
 114154795.551 8  88951788.872 6  21722929.808 6  21722929.331 6
 128016007.586 7  99752739.039 4  24360633.187 4  24360634.307 4
 131089793.879 6 102147875.208 2  24945558.014 2  24945560.068 2
 18 01 01 01 16 00.0000000  0 10G08G10G16G18G20G21G26G27G29G31       0.000000000
 132032862.309 6 102882755.694 3  25125018.545 3  25125016.417 3
 131113403.355 6 102166300.311 3  24950051.422 3  24950050.386 3
 107645986.352 7  83879962.254 6  20484345.409 6  20484347.763 6
 121130649.391 7  94387510.401 4  23050392.870 4  23050394.589 4
 118937517.146 7  92678581.764 5  22633051.243 5  22633052.746 5
 112646547.729 8  87776523.982 6  21435919.800 6  21435921.318 6
 108188244.890 8  84302531.005 7  20587536.761 7  20587535.025 7
 114080914.928 8  88894219.562 6  21708870.472 6  21708870.449 6
 128113732.576 7  99828888.352 4  24379229.418 4  24379230.810 4
 131197907.679 6 102232119.692 2  24966131.981 2  24966132.766 2
 18 01 01 01 16 30.0000000  0 10G08G10G16G18G20G21G26G27G29G31       0.000000000
 131934899.598 7 102806421.151 3  25106376.619 3  25106375.123 3
 131006004.882 6 102082613.219 3  24929613.988 3  24929613.234 3
 107616915.042 7  83857309.291 6  20478813.314 6  20478815.362 6
 121059937.018 7  94332409.879 4  23036936.725 4  23036938.348 4
 118950188.704 7  92688455.713 4  22635462.128 4  22635464.301 4
 112680088.017 8  87802659.261 6  21442302.197 6  21442303.874 6
 108222488.653 8  84329214.448 7  20594052.850 7  20594051.071 7
 114007285.906 8  88836846.304 6  21694858.661 6  21694858.668 6
 128211506.875 7  99905076.096 4  24397836.148 4  24397836.729 4
 131306001.846 6 102316348.896 3  24986701.368 3  24986703.002 3
 18 01 01 01 17 00.0000000  0 10G08G10G16G18G20G21G26G27G29G31       0.000000000
 131836978.289 6 102730118.856 3  25087742.822 3  25087740.511 3
 130898589.981 6 101998913.304 3  24909173.593 3  24909173.362 3
 107588344.448 7  83835046.493 6  20473376.644 6  20473378.598 6
 120989525.103 7  94277543.464 4  23023537.637 4  23023539.447 4
 118963458.941 7  92698796.180 5  22637987.324 5  22637989.227 5
 112714016.541 7  87829097.082 6  21448758.585 6  21448760.260 6
 108257245.301 8  84356297.541 7  20600666.956 7  20600665.307 7
 113933909.402 8  88779669.813 6  21680896.118 6  21680895.648 6
 128309329.897 7  99981301.817 4  24416450.685 4  24416452.142 4
 131414073.859 6 102400560.829 2  25007266.544 2  25007268.127 2
 18 01 01 01 17 30.0000000  0 10G08G10G16G18G20G21G26G27G29G31       0.000000000
 131739099.099 6 102653849.411 3  25069117.043 3  25069115.109 3
 130791161.294 6 101915202.644 3  24888730.832 3  24888729.864 3
 107560276.296 8  83813175.201 6  20468035.403 6  20468037.564 6
 120919416.266 7  94222913.216 4  23010196.605 4  23010198.129 4
 118977327.305 7  92709602.701 5  22640627.089 5  22640628.328 5
 112748331.205 8  87855835.793 6  21455288.392 6  21455290.138 6
 108292514.364 8  84383779.921 7  20607378.540 7  20607376.639 7
 113860786.336 8  88722690.826 6  21666981.492 6  21666980.810 6
 128407200.722 7 100057564.730 4  24435075.154 4  24435076.094 4
 131522120.771 6 102484753.234 2  25027827.145 2  25027828.996 2
 18 01 01 01 18 00.0000000  0 10G08G10G16G18G20G21G26G27G29G31       0.000000000
 131641262.847 6 102577613.420 3  25050499.309 3  25050496.908 3
 130683721.586 6 101831483.390 3  24868285.572 3  24868285.073 3
 107532711.677 7  83791696.283 6  20462790.154 6  20462792.281 6
 120849612.919 7  94168521.008 4  22996913.320 4  22996915.037 4
 118991793.719 7  92720875.239 5  22643379.891 5  22643380.891 5
 112783031.076 8  87882874.654 6  21461891.561 6  21461893.214 6
 108328295.370 8  84411661.222 7  20614187.591 7  20614185.741 7
 113787917.590 8  88665909.996 6  21653114.870 6  21653114.696 6
 128505118.613 7 100133864.433 4  24453707.914 4  24453709.056 4
 131630140.648 6 102568924.621 2  25048382.599 2  25048384.440 2
 18 01 01 01 18 30.0000000  0 10G08G10G16G18G20G21G26G27G29G31       0.000000000
 131543470.191 6 102501411.372 3  25031890.075 3  25031888.457 3
 130576273.499 6 101747757.597 3  24847839.109 3  24847838.693 3
 107505651.508 8  83770610.430 6  20457640.776 6  20457642.621 6
 120780116.959 7  94114368.334 4  22983688.746 4  22983690.271 4
 119006858.049 7  92732613.679 5  22646246.411 5  22646247.930 5
 112818114.342 8  87910212.259 6  21468567.783 6  21468569.354 6
 108364587.865 8  84439941.089 7  20621093.654 7  20621091.762 7
 113715304.092 8  88609328.063 6  21639297.315 6  21639296.563 6
 128603082.786 7 100210200.066 4  24472350.260 4  24472351.454 4
 131738131.068 5 102653072.982 1  25068932.580 1  25068934.184 1
 18 01 01 01 19 00.0000000  0 10G08G10G16G18G20G21G26G27G29G31       0.000000000
 131445722.414 6 102425244.300 3  25013288.469 3  25013286.992 3
 130468819.831 6 101664027.491 3  24827391.591 3  24827390.773 3
 107479097.738 8  83749919.182 6  20452587.887 6  20452589.443 6
 120710931.483 7  94060457.583 4  22970522.988 4  22970524.418 4
 119022519.713 7  92744817.594 4  22649226.332 4  22649228.089 4
 112853580.026 8  87937847.867 6  21475316.834 6  21475318.597 6
 108401391.302 8  84468619.076 7  20628097.074 7  20628095.185 7
 113642946.725 8  88552945.719 6  21625527.687 6  21625527.934 6
 128701092.406 7 100286571.186 4  24490999.936 4  24491002.193 4
 131846089.147 5 102737196.121 2  25089476.216 2  25089477.487 2
 18 01 01 01 19 30.0000000  0 10G08G10G16G18G20G21G26G27G29G31       0.000000000
 131348019.395 6 102349112.143 3  24994696.401 3  24994695.314 3
 130361363.351 7 101580295.141 3  24806942.280 3  24806942.301 3
 107453051.704 8  83729623.570 6  20447631.621 6  20447633.287 6
 120642058.459 7  94006790.306 4  22957417.065 4  22957418.816 4
 119038778.342 7  92757486.659 5  22652320.619 5  22652321.947 5
 112889426.183 8  87965779.935 6  21482138.160 6  21482139.891 6
 108438705.205 8  84497694.830 7  20635197.684 7  20635195.853 7
 113570846.447 8  88496763.681 6  21611807.322 6  21611807.301 6
 128799146.583 7 100362977.035 3  24509659.990 3  24509660.241 3
 131954012.215 6 102821292.030 2  25110013.345 2  25110015.131 2
 18 01 01 01 20 00.0000000  0 10G08G10G16G18G20G21G26G27G29G31       0.000000000
 131250362.239 6 102273015.656 3  24976113.832 3  24976111.143 3
 130253906.691 6 101496562.703 3  24786493.823 3  24786494.829 3
 107427514.459 8  83709724.405 6  20442772.108 6  20442773.849 6
 120573499.930 7  93953368.094 5  22944371.182 5  22944372.263 5
 119055633.434 7  92770620.506 5  22655527.832 5  22655528.992 5
 112925651.446 8  87994007.409 6  21489031.363 6  21489033.302 6
 108476528.991 8  84527167.906 7  20642395.261 7  20642393.400 7
 113499004.127 8  88440782.663 6  21598136.476 6  21598136.108 6
 128897244.726 7 100439417.143 4  24528327.793 4  24528328.894 4
 132061898.204 6 102905359.009 2  25130543.226 2  25130545.418 2
 18 01 01 01 20 30.0000000  0 10G08G10G16G18G20G21G26G27G29G31       0.000000000
 131152751.547 6 102196955.395 3  24957538.703 3  24957536.321 3
 130146452.702 6 101412832.309 3  24766046.162 3  24766046.725 3
 107402487.299 8  83690222.724 6  20438009.347 6  20438011.164 6
 120505258.246 7  93900192.750 4  22931384.530 4  22931386.127 4
 119073084.718 7  92784218.915 4  22658848.982 4  22658850.645 4
 112962254.137 8  88022528.994 6  21495996.685 6  21495998.433 6
 108514862.163 8  84557037.891 7  20649689.699 7  20649688.199 7
 113427420.681 8  88385003.354 6  21584514.506 6  21584513.985 6
 128995386.042 7 100515890.844 4  24547002.541 4  24547003.850 4
 132169744.301 6 102989394.924 2  25151065.626 2  25151067.917 2
 18 01 01 01 21 00.0000000  0 10G08G10G16G18G20G21G26G27G29G31       0.000000000
 131055188.273 6 102120932.114 3  24938972.624 3  24938971.191 3
 130039004.101 6 101329106.092 3  24745600.329 3  24745598.937 3
 107377971.570 7  83671119.556 6  20433344.014 6  20433345.963 6
 120437336.024 7  93847266.372 4  22918459.627 4  22918461.340 4
 119091131.531 7  92798281.373 4  22662282.964 4  22662284.494 4
 112999234.034 8  88051344.491 6  21503033.529 6  21503035.307 6
 108553704.105 8  84587304.350 7  20657081.224 7  20657079.454 7
 113356096.975 8  88329426.476 6  21570941.839 6  21570941.998 6
 129093569.580 7 100592397.468 4  24565686.357 4  24565687.204 4
 132277547.967 6 103073397.788 1  25171580.044 1  25171582.452 1
 18 01 01 01 21 30.0000000  0 10G08G10G16G18G20G21G26G27G29G31       0.000000000
 130957672.917 6 102044946.115 3  24920415.238 3  24920414.168 3
 129931563.619 6 101245386.257 3  24725155.570 3  24725153.990 3
 107353968.310 7  83652415.715 6  20428776.376 6  20428778.248 6
 120369735.642 7  93794590.763 4  22905596.070 4  22905597.478 4
 119109773.697 7  92812807.763 5  22665830.428 5  22665832.609 5
 113036588.897 8  88080452.177 6  21510141.902 6  21510144.010 6
 108593054.252 8  84617966.787 7  20664569.407 7  20664567.585 7
 113285033.993 8  88274052.724 6  21557419.303 6  21557419.007 6
 129191794.785 7 100668936.595 4  24584378.205 4  24584379.016 4
 132385306.724 6 103157365.649 1  25192086.015 1  25192087.817 1
 18 01 01 01 22 00.0000000  0 11G07G08G10G16G18G20G21G26G27G29G31    0.000000000
 132639430.532 6 103355371.29211  25240437.406 1  25240441.432 1
 130860206.164 6 101968997.966 3  24901868.665 3  24901866.744 3
 129824134.016 7 101161674.883 4  24704711.813 4  24704711.252 4
 107330478.932 8  83634112.312 6  20424306.534 6  20424308.522 6
 120302459.208 7  93742167.565 5  22892793.265 5  22892794.685 5
 119129010.709 7  92827797.653 5  22669491.770 5  22669493.047 5
 113074317.285 8  88109850.917 6  21517321.405 6  21517323.219 6
 108632912.010 8  84649024.773 7  20672154.124 7  20672152.307 7
 113214232.596 8  88218882.801 6  21543946.340 6  21543945.838 6
 129290060.610 7 100745507.293 4  24603077.278 4  24603079.715 4
 132493018.106 5 103241296.498 1  25212582.610 1  25212585.409 1
 18 01 01 01 22 30.0000000  0 11G07G08G10G16G18G20G21G26G27G29G31    0.000000000
 132556600.512 6 103290828.375 1  25224676.636 1  25224678.030 1
 130762789.085 6 101893088.604 3  24883331.116 3  24883329.600 3
 129716718.001 7 101077974.149 3  24684271.825 3  24684269.560 3
 107307504.734 8  83616210.334 6  20419934.642 6  20419936.418 6
 120235509.441 7  93689998.940 5  22880053.058 5  22880054.936 5
 119148841.904 7  92843250.527 5  22673264.845 5  22673266.308 5
 113112417.552 8  88139539.443 6  21524571.453 6  21524573.483 6
 108673276.763 8  84680477.811 7  20679835.133 7  20679833.439 7
 113143693.727 8  88163917.472 6  21530523.495 6  21530522.911 6
 129388366.434 7 100822109.227 4  24621785.138 4  24621786.195 4
 132600679.578 6 103325188.572 1  25233069.585 1  25233072.759 1
 18 01 01 01 23 00.0000000  0 11G07G08G10G16G18G20G21G26G27G29G31    0.000000000
 132474112.130 6 103226551.793 2  25208979.729 2  25208981.613 2
 130665422.229 6 101817218.364 3  24864803.256 3  24864801.369 3
 129609318.480 7 100994286.186 4  24663834.269 4  24663832.939 4
 107285046.776 8  83598710.633 6  20415660.987 6  20415662.941 6
 120168887.531 7  93638085.775 5  22867375.154 5  22867376.869 5
 119169266.799 7  92859166.045 5  22677151.816 5  22677153.039 5
 113150887.868 8  88169516.326 6  21531892.210 6  21531894.086 6
 108714147.858 8  84712325.415 7  20687612.622 7  20687611.068 7
 113073418.282 8  88109157.390 6  21517150.026 6  21517149.901 6
 129486711.252 7 100898741.553 4  24640499.085 4  24640499.707 4
 132708288.688 5 103409039.718 1  25253547.104 1  25253549.420 1
 18 01 01 01 23 30.0000000  0 10G07G08G10G16G18G20G21G26G27G29       0.000000000
 132391967.895 6 103162543.383 2  25193348.609 2  25193349.933 2
 130568106.356 6 101741387.862 3  24846284.429 3  24846281.675 3
 129501938.131 7 100910613.133 3  24643399.929 3  24643399.114 3
 107263106.297 8  83581614.144 6  20411485.685 6  20411487.697 6
 120102597.140 7  93586430.938 5  22854760.711 5  22854762.503 5
 119190284.739 7  92875543.650 5  22681151.311 5  22681152.559 5
 113189727.637 8  88199781.072 6  21539283.100 6  21539285.184 6
 108755524.617 8  84744567.041 7  20695486.559 7  20695484.758 7
 113003407.176 8  88054603.279 6  21503827.390 6  21503827.302 6
 129585094.733 7 100975403.974 3  24659220.422 3  24659221.792 3
 18 01 01 01 24 00.0000000  0 10G07G08G10G16G18G20G21G26G27G29       0.000000000
 132310170.270 6 103098804.922 2  25177783.370 2  25177784.715 2
 130470842.031 7 101665597.493 3  24827775.248 3  24827773.487 3
 129394579.748 7 100826957.266 3  24622970.418 3  24622968.752 3
 107241684.438 8  83564921.786 6  20407409.314 6  20407411.496 6
 120036639.961 7  93535035.744 5  22842210.047 5  22842211.045 5
 119211895.255 7  92892383.031 5  22685263.223 5  22685265.181 5
 113228935.225 8  88230332.446 6  21546743.980 6  21546746.323 6
 108797406.462 8  84777202.238 7  20703456.238 7  20703454.539 7
 112933661.302 8  88000255.848 6  21490555.212 6  21490555.017 6
 129683515.705 7 101052095.623 4  24677949.764 4  24677950.846 4
 18 01 01 01 24 30.0000000  0 10G07G08G10G16G18G20G21G26G27G29       0.000000000
 132228721.394 6 103035338.276 2  25162284.377 2  25162285.940 2
 130373630.290 7 101589848.073 3  24809276.954 3  24809274.833 3
 129287246.149 7 100743320.724 4  24602545.888 4  24602544.698 4
 107220782.344 8  83548634.436 6  20403431.989 6  20403433.952 6
 119971018.031 7  93483901.785 5  22829722.254 5  22829723.503 5
 119234097.493 7  92909683.500 5  22689488.303 5  22689490.051 5
 113268509.042 8  88261169.187 6  21554274.818 6  21554276.874 6
 108839792.659 8  84810230.431 7  20711522.057 7  20711520.427 7
 112864181.558 8  87946115.808 6  21477333.813 6  21477333.709 6
 129781973.559 7 101128816.005 3  24696685.568 3  24696686.756 3
 18 01 01 01 25 00.0000000  0 10G07G08G10G16G18G20G21G26G27G29       0.000000000
 132147623.802 6 102972145.359 2  25146851.949 2  25146852.767 2
 130276471.651 6 101514140.134 3  24790787.935 3  24790785.941 3
 129179940.224 7 100659705.728 4  24582126.193 4  24582124.634 4
 107200401.238 7  83532753.057 6  20399553.612 6  20399555.429 6
 119905733.655 7  93433030.858 5  22817299.121 5  22817300.590 5
 119256891.078 7  92927444.720 4  22693826.255 4  22693827.449 4
 113308447.665 8  88292290.187 6  21561875.043 6  21561876.738 6
 108882682.530 8  84843651.100 7  20719683.577 7  20719681.921 7
 112794968.894 8  87892183.872 6  21464163.141 6  21464162.935 6
 129880467.651 7 101205564.629 3  24715428.338 3  24715429.308 3
 18 01 01 01 25 30.0000000  0 10G07G08G10G16G18G20G21G26G27G29       0.000000000
 132066880.154 6 102909228.256 1  25131487.069 1  25131487.603 1
 130179367.147 6 101438474.313 3  24772309.644 3  24772307.088 3
 129072664.582 7 100576114.287 4  24561711.952 4  24561711.614 4
 107180541.995 7  83517278.317 6  20395774.773 6  20395776.484 6
 119840789.329 7  93382424.907 5  22804940.513 5  22804941.937 5
 119280275.099 7  92945666.041 4  22698275.810 4  22698276.981 4
 113348749.312 8  88323694.071 6  21569544.135 6  21569545.937 6
 108926075.331 8  84877463.661 7  20727941.072 7  20727939.405 7
 112726024.218 8  87838460.734 6  21451042.873 6  21451042.992 6
 129978997.096 7 101282340.795 3  24734177.194 3  24734180.061 3
 18 01 01 01 26 00.0000000  0 10G07G08G10G16G18G20G21G26G27G29       0.000000000
 131986493.154 6 102846589.036 1  25116189.774 1  25116190.642 1
 130082317.220 7 101362851.023 3  24753840.935 3  24753839.766 3
 128965422.142 7 100492548.757 4  24541304.151 4  24541303.521 4
 107161206.118 7  83502211.411 6  20392095.209 6  20392096.831 6
 119776187.163 7  93332085.553 5  22792647.629 5  22792648.465 5
 119304249.022 7  92964347.050 4  22702837.630 4  22702839.210 4
 113389412.248 8  88355379.473 6  21577282.143 6  21577283.670 6
 108969970.353 8  84911667.566 7  20736294.010 7  20736292.388 7
 112657348.403 8  87784947.129 6  21437974.475 6  21437974.252 6
 130077561.330 7 101359144.087 3  24752934.027 3  24752935.301 3
 18 01 01 01 26 30.0000000  0 10G07G08G10G16G18G20G21G26G27G29       0.000000000
 131906464.789 6 102784229.270 2  25100960.764 2  25100962.057 2
 129985322.654 6 101287270.859 3  24735383.503 3  24735381.571 3
 128858215.634 7 100409011.211 4  24520904.077 4  24520903.121 4
 107142394.631 7  83487553.104 6  20388515.260 6  20388517.476 6
 119711929.390 7  93282014.564 5  22780419.561 5  22780420.429 5
 119328812.229 7  92983487.212 5  22707512.103 5  22707514.011 5
 113430435.377 8  88387345.551 6  21585088.707 6  21585090.352 6
 109014366.821 8  84946262.211 7  20744742.376 7  20744740.853 7
 112588942.364 8  87731643.721 6  21424957.349 6  21424956.821 6
 130176159.429 7 101435973.787 3  24771697.197 3  24771697.834 3
 18 01 01 01 27 00.0000000  0 10G07G08G10G16G18G20G21G26G27G29       0.000000000
 131826798.038 6 102722151.282 1  25085800.636 1  25085801.701 1
 129888384.146 6 101211734.419 3  24716936.558 3  24716935.380 3
 128751047.905 7 100325503.885 3  24500509.650 3  24500508.717 3
 107124108.566 8  83473304.218 6  20385035.559 6  20385037.465 6
 119648016.990 7  93232212.708 5  22768257.284 5  22768258.595 5
 119353963.967 7  93003085.992 5  22712298.327 5  22712300.105 5
 113471817.245 8  88419591.160 6  21592963.462 6  21592964.934 6
 109059264.000 8  84981247.023 7  20753286.140 7  20753284.210 7
 112520807.033 8  87678551.273 6  21411991.840 6  21411991.467 6
 130274790.527 7 101512829.151 4  24790466.354 4  24790467.905 4
 18 01 01 01 27 30.0000000  0 10G07G08G10G16G18G20G21G26G27G29       0.000000000
 131747495.123 6 102660356.774 2  25070709.741 2  25070710.648 2
 129791502.543 6 101136242.304 3  24698501.641 3  24698499.270 3
 128643921.694 7 100242028.923 3  24480123.930 3  24480123.249 3
 107106348.729 8  83459465.386 6  20381656.014 6  20381657.393 6
 119584454.215 7  93182683.275 5  22756161.478 5  22756162.947 5
 119379703.545 7  93023142.801 5  22717196.421 5  22717198.097 5
 113513556.618 8  88452115.347 6  21600905.967 6  21600907.861 6
 109104661.114 8  85016621.387 7  20761925.028 7  20761923.033 7
 112452943.342 8  87625670.486 6  21399078.008 6  21399077.225 6
 130373454.054 7 101589709.825 3  24809239.885 3  24809241.898 3
 18 01 01 01 28 00.0000000  0 10G07G08G10G16G18G20G21G26G27G29       0.000000000
 131668558.389 6 102598847.604 1  25055688.533 1  25055690.961 1
 129694678.823 6 101060795.290 3  24680076.146 3  24680074.504 3
 128536839.961 7 100158588.623 4  24459747.690 4  24459747.472 4
 107089116.666 7  83446037.802 6  20378376.817 6  20378378.428 6
 119521242.610 7  93133427.500 5  22744132.577 5  22744134.406 5
 119406030.095 7  93043657.018 4  22722206.047 4  22722207.675 4
 113555651.871 8  88484916.847 6  21608916.373 6  21608918.130 6
 109150557.349 8  85052384.672 7  20770658.773 7  20770657.126 7
 112385352.150 8  87573002.041 6  21386215.565 6  21386215.180 6
 130472149.263 7 101666615.139 4  24828021.424 4  24828024.212 4
 18 01 01 01 28 30.0000000  0 10G07G08G10G16G18G20G21G26G27G29       0.000000000
 131589990.002 6 102537625.538 2  25040737.193 2  25040738.691 2
 129597913.576 6 100985393.833 3  24661662.152 3  24661660.613 3
 128429805.465 7 100075185.107 4  24439379.909 4  24439379.112 4
 107072413.432 7  83433022.310 6  20375198.303 6  20375199.976 6
 119458384.193 7  93084446.924 5  22732171.076 5  22732172.512 5
 119432942.723 7  93064627.912 4  22727327.754 4  22727329.066 4
 113598100.665 8  88517993.827 6  21616994.373 6  21616995.873 6
 109196951.901 8  85088536.270 7  20779487.209 7  20779485.453 7
 112318034.413 8  87520546.660 6  21373405.001 6  21373404.884 6
 130570875.392 7 101743544.524 3  24846808.387 3  24846810.257 3
 18 01 01 01 29 00.0000000  0 10G07G08G10G16G18G20G21G26G27G29       0.000000000
 131511792.793 6 102476692.623 1  25025856.881 1  25025858.711 1
 129501207.717 7 100910038.659 3  24643259.833 3  24643258.060 3
 128322820.990 7  99991820.598 4  24419021.444 4  24419020.626 4
 107056239.910 7  83420419.559 6  20372120.547 6  20372122.431 6
 119395880.822 7  93035743.004 5  22720277.083 5  22720278.738 5
 119460440.568 7  93086054.802 5  22732560.344 5  22732562.179 5
 113640901.913 8  88551345.449 6  21625139.143 6  21625140.721 6
 109243843.989 8  85125075.541 7  20788410.668 7  20788408.810 7
 112250991.033 8  87468305.060 6  21360647.086 6  21360647.296 6
 130669631.832 7 101820497.608 3  24865601.807 3  24865602.462 3
 18 01 01 01 29 30.0000000  0 10G07G08G10G16G18G20G21G26G27G29       0.000000000
 131433969.146 6 102416050.871 1  25011047.538 1  25011049.200 1
 129404561.807 6 100834730.181 3  24624868.353 3  24624866.595 3
 128215889.410 7  99908497.272 4  24398672.122 4  24398672.144 4
 107040597.016 7  83408230.286 6  20369143.694 6  20369145.633 6
 119333734.674 7  92987317.437 5  22708450.956 5  22708452.459 5
 119488522.820 7  93107937.087 4  22737904.456 4  22737905.410 4
 113684054.574 7  88584970.901 6  21633350.848 6  21633352.725 6
 109291232.725 8  85162001.823 7  20797428.526 7  20797426.417 7
 112184222.904 8  87416277.950 6  21347941.789 6  21347941.425 6
 130768417.805 7 101897473.649 3  24884400.915 3  24884401.660 3
 18 01 01 01 30 00.0000000  0 10G07G08G10G16G18G20G21G26G27G29       0.000000000
 131356521.475 5 102355702.040 1  24996309.919 1  24996311.242 1
 129307976.588 6 100759469.021 3  24606488.786 3  24606487.232 3
 128109013.495 7  99825217.340 4  24378334.660 4  24378333.870 4
 107025485.759 7  83396455.274 6  20366267.949 6  20366270.088 6
 119271948.437 7  92939172.333 5  22696693.978 5  22696695.675 5
 119517188.790 7  93130274.215 4  22743358.990 4  22743360.491 4
 113727556.525 8  88618868.534 6  21641628.958 6  21641630.796 6
 109339117.218 8  85199314.414 7  20806540.638 7  20806538.739 7
 112117730.918 8  87364466.037 6  21335288.899 6  21335288.452 6
 130867232.408 7 101974472.099 3  24903202.984 3  24903205.053 3
 18 01 01 01 30 30.0000000  0 10G07G08G10G16G18G20G21G26G27G29       0.000000000
 131279452.025 5 102295648.007 1  24981644.084 1  24981644.336 1
 129211453.033 6 100684255.933 3  24588121.172 3  24588119.256 3
 128002196.161 7  99741983.044 4  24358008.063 4  24358008.155 4
 107010907.269 7  83385095.420 6  20363493.755 6  20363495.991 6
 119210524.046 7  92891309.175 5  22685005.134 5  22685006.483 5
 119546437.469 7  93153065.406 5  22748925.114 5  22748926.314 5
 113771406.761 8  88653037.547 6  21649973.193 6  21649974.873 6
 109387496.659 8  85237012.667 7  20815746.931 7  20815744.967 7
 112051516.065 8  87312870.045 6  21322688.663 6  21322688.234 6
 130966075.178 7 102051492.403 4  24922012.940 4  24922014.289 4
 18 01 01 01 31 00.0000000  0 10G07G08G10G16G18G20G21G26G27G29       0.000000000
 131202763.372 5 102235890.600 1  24967050.716 1  24967052.011 1
 129114991.483 7 100609091.118 4  24569765.139 4  24569763.418 4
 127895440.206 7  99658796.600 4  24337693.419 4  24337692.437 4
 106996862.559 7  83374151.478 6  20360821.356 6  20360823.444 6
 119149463.439 7  92843729.504 5  22673385.905 5  22673386.820 5
 119576267.672 7  93176309.734 4  22754601.401 4  22754602.610 4
 113815603.297 7  88687476.412 6  21658383.568 6  21658385.469 6
 109436370.129 8  85275095.872 7  20825047.212 7  20825045.638 7
 111985579.172 8  87261490.655 6  21310140.964 6  21310140.736 6
 131064945.213 7 102128534.019 3  24940827.654 3  24940828.338 3
 18 01 01 01 31 30.0000000  0 10G07G08G10G16G18G20G21G26G27G29       0.000000000
 131126457.875 6 102176431.746 1  24952530.181 1  24952531.567 1
 129018592.952 7 100533975.434 4  24551421.090 4  24551419.175 4
 127788748.516 7  99575660.215 4  24317390.218 4  24317390.199 4
 106983352.278 7  83363623.982 6  20358250.580 6  20358252.431 6
 119088768.771 7  92796434.964 5  22661835.570 5  22661837.305 5
 119606678.871 7  93200006.784 4  22760388.485 4  22760389.778 4
 113860144.633 8  88722183.948 6  21666859.690 6  21666861.296 6
 109485736.720 8  85313563.334 7  20834441.201 7  20834439.844 7
 111919921.173 8  87210328.596 6  21297646.579 6  21297646.133 6
 131163841.731 7 102205596.240 3  24959646.831 3  24959647.502 3
 18 01 01 01 32 00.0000000  0 10G07G08G10G16G18G20G21G26G27G29       0.000000000
 131050538.124 6 102117273.503 1  24938083.200 1  24938084.772 1
 128922258.344 6 100458909.544 3  24533088.332 3  24533087.215 3
 127682123.945 7  99492576.134 4  24297100.423 4  24297099.933 4
 106970377.799 7  83353513.987 6  20355781.677 6  20355783.549 6
 119028441.854 7  92749426.982 5  22650355.546 5  22650357.879 5
 119637669.921 7  93224155.655 5  22766286.055 5  22766287.268 5
 113905029.262 8  88757158.988 6  21675400.847 6  21675402.410 6
 109535595.492 8  85352414.325 7  20843929.005 7  20843927.604 7
 111854543.024 8  87159384.582 6  21285205.841 6  21285205.177 6
 131262764.210 7 102282678.678 3  24978470.873 3  24978471.530 3
 18 01 01 01 32 30.0000000  0 10G07G08G10G16G18G20G21G26G27G29       0.000000000
 130975005.957 6 102058417.257 1  24923710.024 1  24923710.869 1
 128825988.520 6 100383894.136 3  24514768.327 3  24514767.975 3
 127575569.319 7  99409546.557 4  24276824.669 4  24276823.143 4
 106957940.128 7  83343822.304 6  20353414.793 6  20353416.222 6
 118968485.079 7  92702707.441 5  22638946.277 5  22638947.891 5
 119669239.454 7  93248755.302 4  22772293.147 4  22772294.853 4
 113950256.088 7  88792400.673 6  21684007.414 6  21684008.899 6
 109585945.580 8  85391648.147 7  20853510.490 7  20853508.764 7
 111789445.568 8  87108659.295 6  21272818.338 6  21272817.716 6
 131361711.734 7 102359780.656 3  24997300.433 3  24997301.163 3
 18 01 01 01 33 00.0000000  0 10G07G08G10G16G18G20G21G26G27G29       0.000000000
 130899864.073 6 101999865.127 2  24909410.714 2  24909412.403 2
 128729783.891 6 100308929.519 3  24496461.808 3  24496460.360 3
 127469087.451 7  99326573.657 4  24256561.136 4  24256560.093 4
 106946039.742 7  83334549.275 6  20351150.118 6  20351152.117 6
 118908900.934 7  92656278.239 5  22627607.848 5  22627609.513 5
 119701386.903 7  93273805.279 4  22778410.332 4  22778411.956 4
 113995822.897 8  88827907.278 6  21692678.405 6  21692680.279 6
 109636785.971 8  85431264.030 7  20863185.149 7  20863183.153 7
 111724629.759 8  87058153.490 6  21260483.872 6  21260483.972 6
 131460683.871 7 102436901.785 3  25016133.745 3  25016134.840 3
 18 01 01 01 33 30.0000000  0 10G07G08G10G16G18G20G21G26G27G29       0.000000000
 130825114.976 6 101941619.093 2  24895186.009 2  24895187.976 2
 128633645.598 6 100234016.629 3  24478167.644 3  24478165.769 3
 127362681.305 7  99243659.773 4  24236313.146 4  24236311.918 4
 106934677.193 7  83325695.338 6  20348987.914 6  20348990.281 6
 118849691.396 7  92610140.953 5  22616340.741 5  22616342.336 5
 119734111.461 7  93299304.947 4  22784637.907 4  22784639.313 4
 114041728.051 7  88863677.529 6  21701413.688 6  21701415.598 6
 109688115.767 8  85471261.262 7  20872952.818 7  20872950.827 7
 111660096.528 8  87007867.860 6  21248203.639 6  21248203.711 6
 131559679.772 7 102514041.453 3  25034971.362 3  25034973.755 3
 18 01 01 01 34 00.0000000  0 10G07G08G10G16G18G20G21G26G27G29       0.000000000
 130750760.694 5 101883680.665 2  24881036.780 2  24881038.765 2
 128537574.212 6 100159155.837 3  24459886.006 3  24459885.037 3
 127256353.671 7  99160807.085 4  24216079.975 4  24216078.216 4
 106923854.360 7  83317261.955 6  20346928.517 6  20346930.651 6
 118790858.090 7  92564296.828 5  22605145.238 5  22605146.571 5
 119767411.924 7  93325253.353 4  22790974.804 4  22790976.367 4
 114087970.973 8  88899710.988 6  21710213.314 6  21710215.193 6
 109739933.851 8  85511638.988 7  20882813.461 7  20882811.728 7
 111595846.769 8  86957803.113 6  21235977.257 6  21235977.061 6
 131658698.798 7 102591199.144 3  25053814.158 3  25053815.020 3
 18 01 01 01 34 30.0000000  0 10G07G08G10G16G18G20G21G26G27G29       0.000000000
 130676803.714 6 101826051.926 2  24866963.488 2  24866964.973 2
 128441570.841 6 100084348.014 4  24441617.058 4  24441615.982 4
 127150107.366 7  99078017.759 4  24195861.381 4  24195860.449 4
 106913571.506 7  83309249.334 6  20344971.833 6  20344973.863 6
 118732403.425 7  92518747.740 5  22594021.714 5  22594023.123 5
 119801286.909 7  93351649.460 4  22797421.269 4  22797422.576 4
 114134549.613 8  88936006.021 6  21719076.919 6  21719078.667 6
 109792239.328 8  85552396.491 7  20892766.904 7  20892765.017 7
 111531881.354 8  86907959.953 6  21223805.142 6  21223805.052 6
 131757740.082 6 102668374.170 3  25072662.119 3  25072663.109 3
 18 01 01 01 35 00.0000000  0 10G07G08G10G16G18G20G21G26G27G29       0.000000000
 130603246.271 6 101768734.401 2  24852966.267 2  24852968.030 2
 128345635.843 6 100009593.536 3  24423361.377 3  24423359.148 3
 127043945.340 7  98995294.103 4  24175659.530 4  24175658.328 4
 106903829.805 7  83301658.405 6  20343118.136 6  20343120.082 6
 118674329.484 7  92473495.341 5  22582970.533 5  22582971.626 5
 119835735.605 7  93378492.603 4  22803976.538 4  22803978.099 4
 114181461.712 7  88972560.914 6  21728004.004 6  21728006.012 6
 109845031.184 8  85593532.984 7  20902812.847 7  20902810.987 7
 111468201.252 8  86858339.093 6  21211687.367 6  21211687.200 6
 131856803.113 7 102745566.152 3  25091512.525 3  25091513.110 3
 18 01 01 01 35 30.0000000  0 10G07G08G10G16G18G20G21G26G27G29       0.000000000
 130530091.345 6 101711730.616 2  24839045.360 2  24839046.705 2
 128249770.512 6  99934893.314 3  24405118.820 3  24405116.521 3
 126937870.443 7  98912638.340 4  24155473.812 4  24155473.212 4
 106894629.887 7  83294489.638 6  20341367.236 6  20341369.025 6
 118616637.642 7  92428540.665 5  22571991.828 5  22571993.688 5
 119870756.815 7  93405781.867 4  22810640.870 4  22810642.107 4
 114228706.979 8  89009375.408 6  21736994.402 6  21736996.479 6
 109898308.363 8  85635047.659 7  20912951.102 7  20912949.062 7
 111404807.310 8  86808941.234 6  21199623.676 6  21199623.297 6
 131955887.142 7 102822774.468 3  25110367.462 3  25110369.711 3
 18 01 01 01 36 00.0000000  0 10G07G08G10G16G18G20G21G26G27G29       0.000000000
 130457340.281 6 101655041.489 2  24825201.006 2  24825202.710 2
 128153975.102 6  99860247.603 4  24386889.128 4  24386887.756 4
 126831885.568 7  98830052.721 4  24135305.931 4  24135304.848 4
 106885972.452 7  83287743.580 6  20339719.644 6  20339721.821 6
 118559330.375 7  92383885.681 5  22561086.555 5  22561088.283 5
 119906349.459 7  93433516.394 4  22817413.572 4  22817415.003 4
 114276282.640 8  89046447.352 6  21746048.043 6  21746049.612 6
 109952069.810 8  85676939.687 7  20923181.352 7  20923179.971 7
 111341700.486 8  86759767.088 6  21187614.776 6  21187614.387 6
 132054991.343 7 102899998.605 3  25129226.494 3  25129227.790 3
 18 01 01 01 36 30.0000000  0 10G07G08G10G16G18G20G21G26G27G29       0.000000000
 130384995.627 6 101598669.052 2  24811433.707 2  24811436.323 2
 128058250.760 7  99785657.227 4  24368673.625 4  24368672.146 4
 126725993.593 7  98747539.494 4  24115155.369 4  24115154.359 4
 106877858.724 8  83281421.189 6  20338175.741 6  20338177.855 6
 118502409.731 8  92339531.948 5  22550255.073 5  22550256.553 5
 119942512.122 7  93461695.108 4  22824295.421 4  22824296.567 4
 114324187.383 8  89083775.727 6  21755164.045 6  21755165.614 6
 110006314.495 8  85719208.264 7  20933503.824 7  20933502.375 7
 111278881.680 8  86710817.379 6  21175661.105 6  21175660.663 6
 132154115.383 7 102977238.103 3  25148089.801 3  25148091.159 3
 18 01 01 01 37 00.0000000  0 10G07G08G10G16G18G20G21G26G27G29       0.000000000
 130313060.011 6 101542615.281 2  24797744.313 2  24797747.468 2
 127962597.960 6  99711122.621 4  24350470.727 4  24350469.821 4
 126620197.405 7  98665100.906 4  24095023.046 4  24095021.729 4
 106870289.057 7  83275522.744 6  20336735.507 6  20336737.083 6
 118445877.706 7  92295481.017 5  22539497.315 5  22539498.998 5
 119979243.808 7  93490317.220 4  22831285.346 4  22831286.301 4
 114372420.210 8  89121359.747 6  21764342.417 6  21764344.185 6
 110061041.312 8  85761852.534 7  20943918.157 7  20943916.482 7
 111216351.823 8  86662092.812 6  21163762.015 6  21163761.655 6
 132253258.550 7 103054492.547 3  25166955.438 3  25166955.963 3
 18 01 01 01 37 30.0000000  0 10G07G08G10G16G18G20G21G26G27G29       0.000000000
 130241535.865 6 101486882.222 2  24784133.991 2  24784136.563 2
 127867017.689 6  99636644.504 4  24332282.546 4  24332280.826 4
 126514499.878 7  98582739.210 4  24074909.795 4  24074908.372 4
 106863264.497 7  83270049.069 6  20335398.903 6  20335400.602 6
 118389736.192 7  92251734.380 5  22528813.791 5  22528815.780 5
 120016543.494 7  93519381.914 4  22838382.034 4  22838384.265 4
 114420979.051 7  89159197.808 6  21773582.542 6  21773584.741 6
 110116249.176 8  85804871.653 7  20954424.042 7  20954421.985 7
 111154111.776 8  86613594.096 6  21151918.082 6  21151917.829 6
 132352419.896 6 103131761.156 3  25185825.337 3  25185826.000 3
 18 01 01 01 38 00.0000000  0 10G07G08G10G16G18G20G21G26G27G29       0.000000000
 130170424.961 7 101431471.102 2  24770602.575 2  24770604.142 2
 127771510.994 6  99562223.772 3  24314108.271 3  24314106.038 3
 126408903.909 7  98500456.648 4  24054815.111 4  24054814.233 4
 106856785.744 8  83265000.686 6  20334165.800 6  20334167.678 6
 118333987.042 8  92208293.507 5  22518205.430 5  22518206.720 5
 120054409.879 7  93548888.204 4  22845588.550 4  22845589.755 4
 114469862.176 8  89197288.548 6  21782884.742 6  21782886.491 6
 110171937.040 8  85848264.787 7  20965021.094 7  20965018.824 7
 111092162.528 8  86565321.952 6  21140129.735 6  21140129.476 6
 132451598.703 7 103209043.362 3  25204698.710 3  25204699.444 3
 18 01 01 01 38 30.0000000  0 10G07G08G10G16G18G20G21G26G27G29       0.000000000
 130099729.557 6 101376383.821 2  24757149.784 2  24757150.389 2
 127676078.334 6  99487860.679 4  24295948.166 4  24295946.812 4
 126303412.348 7  98418255.403 4  24034740.570 4  24034740.228 4
 106850853.425 7  83260378.091 6  20333036.746 6  20333038.760 6
 118278632.275 7  92165159.927 5  22507671.526 5  22507673.246 5
 120092841.558 7  93578834.975 4  22852901.969 4  22852903.414 4
 114519069.028 7  89235631.560 6  21792248.570 6  21792250.506 6
 110228103.738 8  85892031.022 7  20975709.301 7  20975707.134 7
 111030504.934 8  86517277.085 6  21128396.569 6  21128396.115 6
 132550794.573 7 103286338.832 3  25223574.703 3  25223575.025 3
 18 01 01 01 39 00.0000000  0 10G07G08G10G16G18G20G21G26G27G29       0.000000000
 130029452.033 6 101321622.130 2  24743776.462 2  24743779.448 2
 127580720.689 7  99413556.022 4  24277801.732 4  24277800.770 4
 126198028.146 7  98336137.841 4  24014686.895 4  24014685.638 4
 106845468.361 7  83256181.932 6  20332011.971 6  20332014.144 6
 118223674.000 7  92122335.308 5  22497213.188 5  22497214.901 5
 120131837.027 7  93609221.093 4  22860322.412 4  22860324.417 4
 114568597.304 8  89274225.026 6  21801673.735 6  21801675.437 6
 110284748.122 8  85936169.490 7  20986488.209 7  20986486.508 7
 110969139.921 8  86469460.186 6  21116719.083 6  21116718.780 6
 132650006.597 7 103363646.932 3  25242453.495 3  25242455.019 3
 18 01 01 01 39 30.0000000  0 10G07G08G10G16G18G20G21G26G27G29       0.000000000
 129959594.958 7 101267188.050 3  24730482.288 3  24730485.191 3
 127485439.007 6  99339310.592 4  24259670.604 4  24259669.120 4
 126092754.193 7  98254106.198 4  23994653.834 4  23994652.713 4
 106840631.020 7  83252412.569 6  20331091.483 6  20331093.549 6
 118169114.067 7  92079821.081 5  22486830.907 5  22486832.568 5
 120171395.129 7  93640045.580 4  22867849.861 4  22867851.301 4
 114618445.383 8  89313067.683 6  21811159.446 6  21811160.716 6
 110341869.078 8  85980679.326 7  20997358.049 7  20997356.097 7
 110908068.379 8  86421871.988 6  21105097.577 6  21105097.326 6
 132749234.246 6 103440967.190 2  25261336.022 2  25261337.717 2
 18 01 01 01 40 00.0000000  0 10G07G08G10G16G18G20G21G26G27G29       0.000000000
 129890160.274 7 101213083.090 3  24717268.893 3  24717272.628 3
 127390233.975 7  99265124.890 4  24241554.652 4  24241551.546 4
 125987593.367 7  98172162.704 4  23974642.446 4  23974641.880 4
 106836342.351 7  83249070.753 6  20330275.622 6  20330277.378 6
 118114954.318 7  92037618.684 5  22476524.747 5  22476526.254 5
 120211514.943 7  93671307.785 4  22875484.875 4  22875486.192 4
 114668611.594 7  89352158.234 6  21820705.900 6  21820707.576 6
 110399465.393 8  86025559.568 7  21008318.009 7  21008316.310 7
 110847291.181 8  86374513.130 6  21093531.985 6  21093531.409 6
 132848476.803 6 103518299.078 3  25280221.718 3  25280222.625 3
 18 01 01 01 40 30.0000000  0 10G07G08G10G16G18G20G21G26G27G29       0.000000000
 129821150.118 7 101159308.906 3  24704136.941 3  24704140.140 3
 127295106.401 7  99190999.565 4  24223451.843 4  24223449.575 4
 125882548.538 7  98090309.587 4  23954652.760 4  23954652.861 4
 106832603.110 7  83246157.063 6  20329564.209 6  20329566.075 6
 118061197.049 7  91995729.908 5  22466294.967 5  22466296.803 5
 120252194.955 7  93703006.487 4  22883225.920 4  22883227.607 4
 114719094.227 8  89391495.367 6  21830311.951 6  21830313.753 6
 110457535.930 8  86070809.338 7  21019368.430 7  21019367.141 7
 110786809.349 8  86327384.447 6  21082022.950 6  21082022.269 6
 132947733.679 7 103595642.136 3  25299109.722 3  25299110.595 3
 18 01 01 01 41 00.0000000  0 10G07G08G10G16G18G20G21G26G27G29       0.000000000
 129752566.941 7 101105867.487 3  24691086.752 3  24691089.639 3
 127200057.245 7  99116935.328 4  24205363.745 4  24205363.383 4
 125777622.687 7  98008549.163 4  23934686.316 4  23934685.886 4
 106829413.998 7  83243672.024 6  20328957.339 6  20328958.968 6
 118007843.720 7  91954155.893 5  22456142.117 5  22456143.898 5
 120293433.710 7  93735140.605 4  22891072.925 4  22891075.194 4
 114769892.419 7  89431078.369 6  21839978.665 6  21839980.590 6
 110516079.524 8  86116427.702 7  21030509.133 7  21030507.306 7
 110726623.745 8  86280486.581 6  21070569.796 6  21070569.459 6
 133047004.266 6 103672995.842 3  25318000.414 3  25318001.449 3
 18 01 01 01 41 30.0000000  0 10G07G08G10G16G18G20G21G26G27G29       0.000000000
 129684412.776 7 101052760.361 3  24678117.696 3  24678119.898 3
 127105087.293 6  99042932.749 4  24187291.637 4  24187290.929 4
 125672818.670 7  97926883.721 4  23914743.551 4  23914742.180 4
 106826774.970 7  83241615.637 6  20328455.006 6  20328456.790 6
 117954896.222 7  91912898.112 5  22446066.563 5  22446068.568 5
 120335230.069 7  93767709.204 4  22899026.716 4  22899028.526 4
 114821003.963 8  89470905.553 6  21849704.824 6  21849706.647 6
 110575094.894 8  86162413.706 7  21041739.515 7  21041737.837 7
 110666735.286 8  86233820.256 6  21059173.280 6  21059173.239 6
 133146287.875 7 103750359.671 3  25336893.359 3  25336894.569 3
 18 01 01 01 42 00.0000000  0 10G07G08G10G16G18G20G21G26G27G29       0.000000000
 129616689.921 7 100999989.325 3  24665230.676 3  24665232.612 3
 127010197.282 6  98968992.503 3  24169234.372 3  24169233.147 3
 125568139.469 7  97845315.505 4  23894822.906 4  23894822.722 4
 106824687.358 7  83239988.917 6  20328057.644 6  20328059.271 6
 117902356.574 8  91871958.131 5  22436068.842 5  22436070.354 5
 120377582.208 7  93800710.869 4  22907086.382 4  22907087.585 4
 114872426.975 7  89510975.425 6  21859490.348 6  21859492.387 6
 110634580.861 8  86208766.394 7  21053059.338 7  21053057.676 7
 110607144.893 8  86187386.182 6  21047833.585 6  21047833.713 6
 133245583.918 7 103827733.220 3  25355788.656 3  25355789.634 3
 18 01 01 01 42 30.0000000  0 10G07G08G10G16G18G20G21G26G27G29       0.000000000
 129549400.889 7 100947556.331 3  24652425.188 3  24652427.078 3
 126915387.948 7  98895115.117 4  24151193.378 4  24151192.198 4
 125463587.907 7  97763846.748 4  23874926.922 4  23874926.491 4
 106823151.633 7  83238792.262 6  20327765.374 6  20327767.516 6
 117850226.766 7  91831337.534 5  22426148.874 5  22426150.277 5
 120420489.072 7  93834144.795 4  22915251.220 4  22915252.649 4
 114924160.719 8  89551287.445 6  21869334.987 6  21869337.194 6
 110694536.176 8  86255484.830 7  21064468.281 7  21064466.728 7
 110547853.428 8  86141185.045 6  21036550.640 6  21036550.746 6
 133344891.787 6 103905115.959 2  25374686.055 2  25374687.826 2
 18 01 01 01 43 00.0000000  0 10G07G08G10G16G18G20G21G26G27G29       0.000000000
 129482547.357 6 100895462.701 3  24639703.337 3  24639705.994 3
 126820660.579 6  98821301.633 4  24133168.115 4  24133165.996 4
 125359166.961 7  97682479.797 4  23855057.017 4  23855055.294 4
 106822168.360 7  83238026.066 6  20327578.219 6  20327580.216 6
 117798508.197 8  91791037.351 5  22416307.105 5  22416308.608 5
 120463948.941 7  93868009.644 4  22923520.860 4  22923522.743 4
 114976203.496 8  89591840.251 6  21879238.679 6  21879240.303 6
 110754959.604 8  86302568.014 7  21075966.517 7  21075964.961 7
 110488861.846 8  86095217.587 6  21025325.333 6  21025324.691 6
 133444210.846 6 103982507.466 1  25393585.891 1  25393587.611 1
 18 01 01 01 43 30.0000000  0 10G07G08G10G16G18G20G21G26G27G29       0.000000000
 129416131.597 6 100843710.102 3  24627064.913 3  24627066.976 3
 126726015.206 7  98747552.059 4  24115157.578 4  24115155.316 4
 125254879.468 7  97601216.828 4  23835212.036 4  23835211.433 4
 106821738.064 7  83237690.756 6  20327496.393 6  20327498.320 6
 117747202.506 7  91751058.890 5  22406543.787 5  22406545.396 5
 120507960.837 7  93902304.612 4  22931896.831 4  22931898.450 4
 115028552.788 8  89632631.912 6  21889199.969 6  21889201.769 6
 110815849.861 8  86350014.964 6  21087553.417 6  21087551.706 6
 110430171.017 8  86049484.477 6  21014156.857 6  21014156.447 6
 133543540.440 5 104059907.061 1  25412487.891 1  25412489.261 1
 18 01 01 01 44 00.0000000  0 10G07G08G10G16G18G20G21G26G27G29       0.000000000
 129350155.744 7 100792300.346 3  24614510.318 3  24614513.460 3
 126631453.186 7  98673867.398 4  24097162.825 4  24097160.796 4
 125150728.382 7  97520060.128 4  23815392.177 4  23815391.385 4
 106821861.233 7  83237786.716 6  20327519.949 6  20327521.779 6
 117696312.528 8  91711404.370 5  22396859.630 5  22396861.452 5
 120552522.626 7  93937028.109 4  22940376.176 4  22940377.798 4
 115081207.262 8  89673661.368 6  21899219.901 6  21899221.760 6
 110877205.691 8  86397824.698 6  21099229.141 6  21099227.229 6
 110371781.876 8  86003986.464 6  21003045.720 6  21003044.882 6
 133642880.200 5 104137314.735 1  25431392.007 1  25431392.463 1
 18 01 01 01 44 30.0000000  0  9G07G08G10G16G18G20G21G26G27          0.000000000
 129284621.748 7 100741234.887 3  24602039.611 3  24602042.278 3
 126536975.743 7  98600248.620 4  24079182.847 4  24079182.762 4
 125046716.624 7  97439012.028 4  23795599.443 4  23795598.563 4
 106822538.263 7  83238314.275 6  20327648.651 6  20327650.485 6
 117645839.348 7  91672074.634 5  22387255.041 5  22387256.813 5
 120597633.572 7  93972179.492 4  22948960.274 4  22948962.099 4
 115134166.147 8  89714928.035 6  21909297.261 6  21909299.376 6
 110939025.772 8  86445996.176 6  21110993.224 6  21110991.870 6
 110313695.325 8  85958724.224 6  20991992.070 6  20991991.679 6
 18 01 01 01 45 00.0000000  0  9G07G08G10G16G18G20G21G26G27          0.000000000
 129219532.073 7 100690515.671 3  24589654.473 3  24589656.193 3
 126442583.313 7  98526696.090 4  24061221.153 4  24061219.861 4
 124942847.162 7  97358074.785 4  23775834.201 4  23775833.524 4
 106823769.936 7  83239274.020 6  20327882.911 6  20327884.982 6
 117595784.937 7  91633071.194 5  22377729.877 5  22377731.657 5
 120643292.030 7  94007757.530 4  22957648.753 4  22957650.923 4
 115187427.289 8  89756430.221 6  21919432.610 6  21919434.780 6
 111001308.806 8  86494528.406 7  21122845.331 7  21122843.643 7
 110255912.277 8  85913698.466 6  20980996.252 6  20980995.759 6
 18 01 01 01 45 30.0000000  0  9G07G08G10G16G18G20G21G26G27          0.000000000
 129154888.768 7 100640144.269 3  24577352.669 3  24577354.768 3
 126348276.558 6  98453210.349 4  24043276.071 4  24043274.103 4
 124839122.847 7  97277250.633 4  23756095.609 4  23756094.921 4
 106825556.785 7  83240666.366 6  20328223.031 6  20328225.104 6
 117546151.113 7  91594395.510 5  22368284.607 5  22368286.577 5
 120689496.243 7  94043760.801 4  22966441.434 4  22966443.004 4
 115240989.138 8  89798166.727 6  21929625.226 6  21929627.172 6
 111064053.451 8  86543420.347 7  21134785.243 7  21134783.383 7
 110198433.617 8  85868909.915 7  20970058.596 7  20970058.239 7
 18 01 01 01 46 00.0000000  0  9G07G08G10G16G18G20G21G26G27          0.000000000
 129090693.675 7 100590122.119 3  24565137.126 3  24565139.319 3
 126254056.562 7  98379792.209 4  24025346.595 4  24025344.486 4
 124735546.581 7  97196541.876 4  23736385.976 4  23736384.513 4
 106827899.033 7  83242491.494 6  20328668.830 6  20328670.708 6
 117496939.104 7  91556048.485 5  22358919.835 5  22358921.775 5
 120736244.477 7  94080188.034 4  22975337.249 4  22975338.681 4
 115294850.287 8  89840136.461 6  21939874.699 6  21939876.906 6
 111127258.429 8  86592670.954 6  21146812.656 6  21146810.863 6
 110141260.308 8  85824359.281 6  20959178.691 6  20959178.349 6
 18 01 01 01 46 30.0000000  0  9G07G08G10G16G18G20G21G26G27          0.000000000
 129026949.186 6 100540451.077 3  24553005.918 3  24553008.825 3
 126159924.101 6  98306442.265 4  24007432.716 4  24007432.140 4
 124632121.344 7  97115950.793 4  23716704.438 4  23716703.818 4
 106830797.119 7  83244749.733 6  20329220.337 6  20329222.232 6
 117448151.350 7  91518032.067 5  22349635.929 5  22349637.820 5
 120783535.394 7  94117038.108 4  22984336.948 4  22984338.378 4
 115349008.382 8  89882337.575 6  21950180.734 6  21950182.688 6
 111190922.334 8  86642279.189 7  21158927.350 7  21158925.474 7
 110084393.215 8  85780047.271 7  20948357.284 7  20948356.909 7
 18 01 01 01 47 00.0000000  0  9G07G08G10G16G18G20G21G26G27          0.000000000
 128963657.157 7 100491132.613 3  24540962.345 3  24540964.487 3
 126065879.944 6  98233161.115 4  23989536.647 4  23989535.358 4
 124528850.111 7  97035479.690 4  23697052.269 4  23697051.441 4
 106834251.839 7  83247441.727 6  20329877.693 6  20329879.598 6
 117399789.439 7  91480347.466 5  22340433.294 5  22340435.031 5
 120831367.405 7  94154309.816 4  22993438.493 4  22993439.619 4
 115403462.744 8  89924769.543 6  21960543.008 6  21960545.033 6
 111255043.820 8  86692243.981 6  21171129.357 6  21171127.814 6
 110027833.250 8  85735974.586 6  20937594.397 6  20937593.768 6
 18 01 01 01 47 30.0000000  0  9G07G08G10G16G18G20G21G26G27          0.000000000
 128900819.862 7 100442168.481 3  24529004.368 3  24529006.182 3
 125971925.157 6  98159949.670 4  23971658.877 4  23971656.972 4
 124425735.711 7  96955130.827 5  23677430.418 5  23677429.483 5
 106838263.483 7  83250567.678 6  20330641.097 6  20330643.255 6
 117351854.981 8  91442995.964 5  22331311.608 5  22331313.282 5
 120879738.972 7  94192001.936 4  23002643.538 4  23002644.874 4
 115458211.172 8  89967430.666 6  21970961.218 6  21970963.154 6
 111319621.546 8  86742564.276 7  21183418.091 7  21183416.619 7
 109971581.359 8  85692141.950 7  20926890.039 7  20926889.558 7
 18 01 01 01 48 00.0000000  0  9G07G08G10G16G18G20G21G26G27          0.000000000
 128838439.273 7 100393560.233 3  24517133.609 3  24517135.763 3
 125878060.597 7  98086808.477 4  23953797.043 4  23953795.610 4
 124322781.148 7  96874906.500 5  23657839.359 5  23657838.216 5
 106842832.320 7  83254127.802 6  20331510.693 6  20331512.321 6
 117304349.192 8  91405978.476 5  22322271.767 5  22322272.946 5
 120928648.380 7  94230113.183 4  23011950.572 4  23011951.860 4
 115513252.616 8  90010320.086 6  21981435.185 6  21981437.268 6
 111384654.085 8  86793238.979 7  21195793.665 7  21195791.771 7
 109915638.387 8  85648550.039 7  20916244.483 7  20916243.950 7
 18 01 01 01 48 30.0000000  0  9G07G08G10G16G18G20G21G26G27          0.000000000
 128776517.288 7 100345309.345 3  24505350.048 3  24505353.247 3
 125784286.999 7  98013738.170 4  23935951.450 4  23935949.946 4
 124219989.300 7  96794808.965 5  23638278.604 5  23638277.554 5
 106847958.887 7  83258122.529 6  20332486.316 6  20332488.203 6
 117257274.332 7  91369296.780 5  22313313.837 5  22313315.408 5
 120978094.071 7  94268642.288 4  23021359.448 4  23021361.202 4
 115568585.078 8  90053436.287 6  21991964.760 6  21991966.886 6
 111450140.027 8  86844266.980 6  21208255.236 6  21208253.282 6
 109860005.293 8  85605199.568 7  20905657.564 7  20905657.347 7
 18 01 01 01 49 00.0000000  0  9G07G08G10G16G18G20G21G26G27          0.000000000
 128715056.314 7 100297417.660 4  24493654.733 4  24493657.640 4
 125690605.544 6  97940739.667 4  23918123.699 4  23918123.566 4
 124117363.077 7  96714840.494 4  23618749.226 4  23618748.462 4
 106853643.078 7  83262551.763 6  20333567.966 6  20333569.857 6
 117210632.219 8  91332952.275 5  22304437.751 5  22304439.352 5
 121028074.176 7  94307587.835 4  23030870.213 4  23030872.234 4
 115624207.012 8  90096778.063 6  22002549.073 6  22002551.266 6
 111516077.964 8  86895647.175 7  21220802.694 7  21220800.831 7
 109804682.953 8  85562091.261 7  20895130.072 7  20895129.705 7
 18 01 01 01 49 30.0000000  0  9G07G08G10G16G18G20G21G26G27          0.000000000
 128654057.741 7 100249886.266 4  24482047.474 4  24482050.458 4
 125597016.974 7  97867813.513 4  23900315.096 4  23900314.189 4
 124014905.449 7  96635003.371 5  23599252.487 5  23599251.369 5
 106859885.937 7  83267416.322 6  20334755.839 6  20334757.603 6
 117164424.144 7  91296945.993 5  22295644.659 5  22295646.563 5
 121078587.232 7  94346948.655 4  23040483.231 4  23040484.475 4
 115680116.711 8  90140344.068 6  22013188.525 6  22013190.269 6
 111582466.470 8  86947378.480 6  21233435.841 6  21233434.172 6
 109749672.247 8  85519225.791 7  20884661.816 7  20884661.821 7
 18 01 01 01 50 00.0000000  0  9G07G08G10G16G18G20G21G26G27          0.000000000
 128593523.763 7 100202716.943 4  24470528.481 4  24470530.849 4
 125503521.860 7  97794960.200 4  23882524.356 4  23882522.791 4
 123912619.325 7  96555299.920 5  23579788.189 5  23579786.801 5
 106866687.636 7  83272716.347 6  20336050.150 6  20336052.359 6
 117118651.960 7  91261279.379 5  22286934.520 5  22286936.165 5
 121129631.425 7  94386723.361 4  23050196.736 4  23050197.930 4
 115736312.908 8  90184133.304 6  22023882.258 6  22023884.190 6
 111649304.109 8  86999459.745 7  21246154.679 7  21246152.876 7
 109694974.155 8  85476603.899 7  20874253.430 7  20874252.805 7
 18 01 01 01 50 30.0000000  0  9G07G08G10G16G18G20G21G26G27          0.000000000
 128533456.968 7 100155911.632 4  24459098.379 4  24459100.104 4
 125410121.406 6  97722180.683 4  23864750.775 4  23864748.648 4
 123810507.698 7  96475732.410 5  23560356.749 5  23560355.905 5
 106874048.184 7  83278451.826 6  20337450.850 6  20337452.838 6
 117073317.083 7  91225953.503 5  22278307.937 5  22278309.210 5
 121181205.183 7  94426910.731 4  23060010.391 4  23060011.873 4
 115792793.938 8  90228144.487 6  22034630.402 6  22034632.284 6
 111716589.400 8  87051889.831 7  21258958.861 7  21258956.940 7
 109640589.521 8  85434226.280 7  20863904.181 7  20863903.958 7
 18 01 01 01 51 00.0000000  0  9G07G08G10G16G18G20G21G26G27          0.000000000
 128473858.897 7 100109471.633 4  24447757.132 4  24447758.429 4
 125316816.383 6  97649475.511 4  23846994.686 4  23846992.704 4
 123708573.438 7  96396303.129 5  23540959.248 5  23540958.243 5
 106881967.998 7  83284623.105 6  20338958.047 6  20338959.804 6
 117028421.384 7  91190969.846 5  22269764.066 5  22269765.643 5
 121233306.683 7  94467509.298 4  23069925.020 4  23069926.431 4
 115849557.890 8  90272376.152 6  22045431.853 6  22045433.919 6
 111784320.891 8  87104667.603 7  21271847.598 7  21271845.947 7
 109586519.271 8  85392093.611 7  20853614.660 7  20853614.515 7
 18 01 01 01 51 30.0000000  0  9G07G08G10G16G18G20G21G26G27          0.000000000
 128414731.256 7 100063398.149 4  24436505.112 4  24436507.526 4
 125223607.604 7  97576845.344 4  23829257.472 4  23829256.945 4
 123606819.488 7  96317014.341 5  23521595.548 5  23521595.428 5
 106890447.559 7  83291230.562 6  20340571.591 6  20340573.622 6
 116983965.832 7  91156329.170 5  22261304.355 5  22261306.057 5
 121285934.268 7  94508517.794 4  23079940.198 4  23079941.540 4
 115906603.278 8  90316827.088 6  22056287.302 6  22056289.557 6
 111852497.107 8  87157791.910 6  21284821.206 6  21284819.318 6
 109532764.300 8  85350206.638 7  20843385.694 7  20843385.518 7
 18 01 01 01 52 00.0000000  0  9G07G08G10G16G18G20G21G26G27          0.000000000
 128356076.072 7 100017692.788 4  24425342.887 4  24425345.671 4
 125130496.460 7  97504291.211 4  23811539.356 4  23811538.141 4
 123505248.845 7  96237868.374 5  23502267.796 5  23502266.796 5
 106899487.332 7  83298274.527 6  20342291.699 6  20342293.645 6
 116939952.819 7  91122033.327 5  22252929.315 5  22252930.797 5
 121339086.051 7  94549934.777 4  23090053.640 4  23090055.785 4
 115963928.703 8  90361496.249 6  22067196.380 6  22067198.206 6
 111921116.543 8  87211261.585 6  21297879.126 6  21297876.926 6
 109479325.544 8  85308566.055 7  20833216.598 7  20833216.206 7
 18 01 01 01 52 30.0000000  0  9G07G08G10G16G18G20G21G26G27          0.000000000
 128297895.350 7  99972357.155 4  24414271.717 4  24414274.036 4
 125037483.264 7  97431813.420 4  23793839.654 4  23793837.762 4
 123403864.331 7  96158867.490 5  23482975.606 5  23482974.210 5
 106909087.084 7  83305754.851 6  20344118.590 6  20344120.400 6
 116896383.736 7  91088083.406 5  22244638.349 5  22244639.994 5
 121392760.558 7  94591759.087 4  23100267.859 4  23100269.680 4
 116021532.070 8  90406381.991 6  22078157.659 6  22078159.753 6
 111990177.666 8  87265075.444 6  21311020.975 6  21311019.171 6
 109426203.839 8  85267172.517 7  20823107.722 7  20823107.527 7
 18 01 01 01 53 00.0000000  0  9G07G08G10G16G18G20G21G26G27          0.000000000
 128240191.395 7  99927393.020 4  24403291.049 4  24403294.063 4
 124944568.915 7  97359412.677 4  23776158.653 4  23776156.791 4
 123302668.982 7  96080013.964 5  23463718.363 5  23463717.544 5
 106919246.801 7  83313671.507 6  20346051.833 6  20346054.000 6
 116853259.734 7  91054480.289 5  22236432.050 5  22236433.991 5
 121446955.590 7  94633989.006 4  23110580.802 4  23110582.627 4
 116079412.169 8  90451483.357 6  22089171.807 6  22089173.977 6
 112059678.974 8  87319232.297 7  21324246.384 7  21324244.928 7
 109373400.157 8  85226026.794 7  20813059.588 7  20813059.694 7
 18 01 01 01 53 30.0000000  0  9G07G08G10G16G18G20G21G26G27          0.000000000
 128182965.498 7  99882801.380 4  24392401.110 4  24392403.723 4
 124851754.859 7  97287090.068 4  23758495.704 4  23758495.291 4
 123201665.666 7  96001310.083 5  23444497.531 5  23444496.760 5
 106929967.164 7  83322025.036 6  20348091.689 6  20348093.874 6
 116810582.841 7  91021225.592 5  22228310.765 5  22228312.405 5
 121501669.488 7  94676623.203 4  23120992.712 4  23120993.976 4
 116137567.314 8  90496799.059 6  22100238.728 6  22100240.358 6
 112129618.933 8  87373730.954 6  21337555.583 6  21337553.865 6
 109320915.338 8  85185129.535 7  20803072.161 7  20803072.228 7
 18 01 01 01 54 00.0000000  0  9G07G08G10G16G18G20G21G26G27          0.000000000
 128126219.589 7  99838583.806 4  24381603.058 4  24381605.958 4
 124759041.485 7  97214845.883 4  23740853.069 4  23740851.512 4
 123100857.315 7  95922758.144 5  23425314.418 5  23425313.681 5
 106941248.394 7  83330815.591 6  20350238.327 6  20350240.703 6
 116768354.445 8  90988320.347 5  22220275.018 5  22220276.818 5
 121556900.430 7  94719660.291 4  23131502.876 4  23131504.622 4
 116195995.740 7  90542327.710 6  22111357.065 6  22111359.485 6
 112199996.027 8  87428570.233 6  21350948.012 6  21350946.050 6
 109268750.316 8  85144481.481 7  20793145.360 7  20793145.328 7
 18 01 01 01 54 30.0000000  0  9G07G08G10G16G18G20G21G26G27          0.000000000
 128069955.571 7  99794741.740 4  24370896.894 4  24370898.692 4
 124666429.795 7  97142681.010 4  23723230.632 4  23723228.373 4
 123000246.911 7  95844360.423 5  23406169.050 5  23406168.171 5
 106953090.335 7  83340043.070 6  20352491.774 6  20352493.968 6
 116726574.941 8  90955764.913 5  22212324.889 5  22212326.529 5
 121612646.689 7  94763098.965 4  23142110.844 4  23142112.215 4
 116254696.116 8  90588068.258 6  22122527.464 6  22122529.498 6
 112270808.632 8  87483748.867 7  21364423.327 7  21364421.290 7
 109216906.020 8  85104083.327 7  20783279.754 7  20783279.365 7
 18 01 01 01 55 00.0000000  0  9G07G08G10G16G18G20G21G26G27          0.000000000
 128014175.431 7  99751276.679 4  24360282.084 4  24360284.441 4
 124573920.977 7  97070596.241 4  23705626.811 4  23705625.219 4
 122899837.325 7  95766119.199 5  23387062.455 5  23387060.974 5
 106965493.483 7  83349707.846 6  20354852.196 6  20354854.178 6
 116685247.100 8  90923561.405 5  22204460.208 5  22204461.958 5
 121668906.262 7  94806937.585 4  23152816.606 4  23152818.720 4
 116313666.368 8  90634019.097 6  22133749.113 6  22133750.855 6
 112342055.180 8  87539265.644 6  21377981.117 6  21377979.002 6
 109165383.284 8  85063935.749 7  20773475.650 7  20773474.603 7
 18 01 01 01 55 30.0000000  0  9G07G08G10G16G18G20G21G26G27          0.000000000
 127958881.194 7  99708190.261 4  24349759.578 4  24349762.165 4
 124481515.733 7  96998592.164 4  23688042.250 4  23688040.467 4
 122799631.552 7  95688036.796 5  23367993.462 5  23367992.013 5
 106978457.450 7  83359809.643 6  20357319.271 6  20357321.415 6
 116644372.341 8  90891710.955 5  22196681.924 5  22196683.650 5
 121725677.302 7  94851174.777 4  23163619.724 4  23163621.347 4
 116372905.551 8  90680179.497 6  22145021.934 6  22145023.701 6
 112413734.151 8  87595119.369 6  21391621.287 6  21391619.198 6
 109114183.060 8  85024039.471 7  20763732.619 7  20763731.953 7
 18 01 01 01 56 00.0000000  0  9G07G08G10G16G18G20G21G26G27          0.000000000
 127904074.432 7  99665483.659 4  24339330.596 4  24339332.728 4
 124389215.108 7  96926669.610 4  23670478.181 4  23670476.308 4
 122699632.484 7  95610115.445 5  23348964.083 5  23348963.299 5
 106991982.709 7  83370348.805 6  20359893.209 6  20359894.960 6
 116603951.889 8  90860214.510 5  22188990.371 5  22188991.891 5
 121782958.116 7  94895809.209 4  23174519.576 4  23174521.889 4
 116432412.189 8  90726548.299 6  22156345.956 6  22156347.740 6
 112485843.881 8  87651308.745 6  21405342.993 6  21405341.554 6
 109063306.220 8  84984395.190 7  20754051.028 7  20754050.280 7
 18 01 01 01 56 30.0000000  0  9G07G08G10G16G18G20G21G26G27          0.000000000
 127849757.016 7  99623158.393 4  24328993.658 4  24328996.430 4
 124297019.772 7  96854829.133 4  23652933.631 4  23652931.916 4
 122599843.063 7  95532357.460 5  23329974.399 5  23329974.385 5
 107006069.573 7  83381325.578 6  20362573.817 6  20362575.619 6
 116563987.171 8  90829073.181 5  22181385.236 5  22181387.111 5
 121840746.511 7  94940839.125 4  23185516.691 4  23185518.501 4
 116492184.116 8  90773123.832 6  22167719.801 6  22167721.822 6
 112558382.788 8  87707832.563 6  21419146.507 6  21419145.190 6
 109012753.662 8  84945003.593 7  20744430.909 7  20744430.768 7
 18 01 01 01 57 00.0000000  0  9G07G08G10G16G18G20G21G26G27          0.000000000
 127795930.566 7  99581215.718 4  24318750.691 4  24318753.804 4
 124204930.894 7  96783071.590 4  23635409.647 4  23635408.422 4
 122500266.204 7  95454765.113 5  23311026.354 5  23311025.101 5
 107020718.015 7  83392739.950 6  20365361.158 6  20365362.949 6
 116524479.611 7  90798288.080 5  22173867.043 5  22173869.241 5
 121899040.603 7  94986263.097 4  23196609.951 4  23196611.264 4
 116552219.669 8  90819904.777 6  22179144.439 6  22179146.053 6
 112631349.268 8  87764689.544 6  21433031.942 6  21433029.924 6
 108962526.298 8  84905865.380 7  20734872.700 7  20734872.681 7
 18 01 01 01 57 30.0000000  0  9G07G08G10G16G18G20G21G26G27          0.000000000
 127742597.061 7  99539657.115 4  24308602.125 4  24308604.760 4
 124112949.560 7  96711397.817 4  23617906.053 4  23617905.056 4
 122400904.869 7  95377340.720 5  23292118.653 5  23292117.368 5
 107035927.678 7  83404591.619 6  20368255.326 6  20368257.182 6
 116485430.695 7  90767860.379 5  22166436.101 5  22166438.202 5
 121957838.741 7  95032079.831 4  23207798.429 4  23207800.607 4
 116612517.561 8  90866890.154 6  22190618.618 6  22190620.502 6
 112704741.664 8  87821878.422 6  21446998.178 6  21446996.174 6
 108912625.025 8  84866981.267 7  20725376.785 7  20725376.452 7
 18 01 01 01 58 00.0000000  0  9G07G08G10G16G18G20G21G26G27          0.000000000
 127689758.026 7  99498483.841 4  24298547.422 4  24298549.558 4
 124021076.287 7  96639808.298 4  23600422.791 4  23600421.720 4
 122301761.962 7  95300086.502 5  23273251.241 5  23273250.564 5
 107051698.746 7  83416880.759 6  20371256.625 6  20371258.360 6
 116446841.781 8  90737791.112 5  22159093.169 5  22159094.731 5
 122017138.665 7  95078287.589 4  23219082.832 4  23219084.790 4
 116673076.149 8  90914078.659 6  22202142.682 6  22202144.210 6
 112778558.353 8  87879397.903 6  21461045.101 6  21461043.152 6
 108863050.694 8  84828351.924 7  20715943.418 7  20715942.897 7
 18 01 01 01 58 30.0000000  0  9G07G08G10G16G18G20G21G26G27          0.000000000
 127637415.671 7  99457697.589 4  24288587.554 4  24288589.432 4
 123929312.041 7  96568303.721 4  23582961.293 4  23582959.740 4
 122202840.416 7  95223004.796 5  23254428.039 5  23254427.302 5
 107068031.479 7  83429607.551 6  20374364.810 6  20374366.532 6
 116408714.084 8  90708081.216 5  22151837.850 5  22151839.424 5
 122076938.332 7  95124884.738 4  23230462.821 4  23230464.260 4
 116733893.759 8  90961468.996 6  22213715.604 6  22213717.628 6
 112852797.818 8  87937246.819 6  21475172.316 6  21475170.336 6
 108813804.248 8  84789978.076 7  20706572.172 7  20706571.546 7
 18 01 01 01 59 00.0000000  0  9G07G08G10G16G18G20G21G26G27          0.000000000
 127585571.135 7  99417299.221 4  24278721.607 4  24278723.390 4
 123837657.992 7  96496885.008 4  23565519.939 4  23565518.391 4
 122104143.137 7  95146097.836 5  23235646.474 5  23235645.711 5
 107084925.752 7  83442771.913 6  20377579.755 6  20377581.312 6
 116371049.363 8  90678732.089 5  22144670.308 5  22144671.824 5
 122137235.925 7  95171869.875 4  23241936.915 4  23241938.268 4
 116794968.488 8  91009059.691 6  22225337.776 6  22225339.974 6
 112927458.069 8  87995423.626 6  21489379.779 6  21489377.507 6
 108764886.553 8  84751860.403 7  20697263.385 7  20697263.120 7
 18 01 01 01 59 30.0000000  0  9G07G08G10G16G18G20G21G26G27          0.000000000
 127534226.388 7  99377290.327 4  24268951.116 4  24268953.269 4
 123746115.073 7  96425552.876 4  23548099.875 4  23548098.587 4
 122005673.064 7  95069367.916 5  23216908.086 5  23216907.289 5
 107102381.669 7  83456373.929 6  20380901.598 6  20380903.149 6
 116333848.596 7  90649744.487 5  22137590.625 5  22137593.004 5
 122198029.125 7  95219241.227 4  23253505.021 4  23253506.467 4
 116856299.387 8  91056849.997 6  22237008.617 6  22237010.739 6
 113002537.589 8  88053927.134 6  21503666.859 6  21503664.836 6
 108716298.511 8  84713999.596 7  20688017.402 7  20688017.075 7
 18 01 01 02 00 00.0000000  0  9G07G08G10G16G18G20G21G26G27          0.000000000
 127483383.196 7  99337672.261 4  24259275.227 4  24259277.796 4
 123654684.311 7  96354308.160 4  23530701.154 4  23530699.609 4
 121907433.122 7  94992817.323 5  23198213.300 5  23198212.792 5
 107120398.425 7  83470412.948 6  20384329.982 6  20384331.546 6
 116297112.831 8  90621119.243 5  22130600.424 5  22130602.478 5
 122259316.492 7  95266997.634 4  23265167.482 4  23265169.215 4
 116917884.449 8  91104838.374 6  22248727.863 6  22248729.824 6
 113078034.687 8  88112756.033 6  21518033.194 6  21518031.554 6
 108668041.009 8  84676396.350 7  20678834.205 7  20678833.957 7
 18 01 01 02 00 30.0000000  0  8G07G08G10G16G18G20G21G26             0.000000000
 127433043.059 7  99298446.195 4  24249696.158 4  24249697.804 4
 123563366.580 7  96283151.488 4  23513324.120 4  23513322.620 4
 121809426.256 7  94916448.345 5  23179563.222 5  23179562.629 5
 107138976.845 7  83484889.621 6  20387865.242 6  20387867.284 6
 116260843.885 8  90592857.737 5  22123698.814 5  22123700.606 5
 122321095.830 7  95315137.383 4  23276924.097 4  23276925.137 4
 116979722.519 8  91153023.874 6  22260495.693 6  22260497.365 6
 113153947.655 8  88171908.980 6  21532479.303 6  21532477.468 6
 18 01 01 02 01 00.0000000  0  9G07G08G10G16G18G20G21G26G27          0.000000000
 127383207.813 7  99259613.521 4  24240212.718 4  24240215.502 4
 123472162.677 7  96212083.564 4  23495968.438 4  23495967.111 4
 121711655.377 7  94840263.245 5  23160958.670 5  23160957.488 5
 107158116.744 7  83499803.824 6  20391507.397 6  20391509.136 6
 116225042.994 8  90564960.948 5  22116886.342 5  22116887.904 5
 122383364.917 7  95363658.748 4  23288773.656 4  23288775.169 4
 117041811.516 8  91201404.902 6  22272310.606 6  22272312.368 6
 113230274.780 8  88231384.648 6  21547003.714 6  21547001.946 6
 108572521.185 8  84601965.317 7  20660657.301 7  20660656.853 7
 18 01 01 02 01 30.0000000  0  9G07G08G10G16G18G20G21G26G27          0.000000000
 127333879.060 7  99221175.487 4  24230825.258 4  24230828.414 4
 123381073.735 7  96141105.190 4  23478633.764 4  23478634.117 4
 121614123.368 7  94764264.287 5  23142398.570 5  23142397.617 5
 107177817.888 7  83515155.356 6  20395256.499 6  20395258.329 6
 116189711.306 8  90537429.792 5  22110162.869 5  22110164.415 5
 122446121.780 7  95412560.224 4  23300716.121 4  23300717.474 4
 117104149.864 8  91249980.245 6  22284173.002 6  22284175.101 6
 113307014.343 8  88291181.697 6  21561606.888 6  21561604.947 6
 108525260.626 8  84565138.930 7  20651663.916 7  20651663.773 7
 18 01 01 02 02 00.0000000  0  9G07G08G10G16G18G20G21G26G27          0.000000000
 127285058.383 7  99183133.401 4  24221535.895 4  24221537.968 4
 123290100.641 7  96070217.082 4  23461322.539 4  23461321.717 4
 121516833.142 7  94688453.747 5  23123884.389 5  23123883.967 5
 107198080.037 7  83530944.036 6  20399112.303 6  20399113.943 6
 116154850.104 8  90510265.218 5  22103528.827 5  22103530.808 5
 122509364.473 7  95461840.241 4  23312750.639 4  23312752.278 4
 117166736.293 8  91298748.887 6  22296083.061 6  22296084.832 6
 113384164.594 8  88351298.780 6  21576288.240 6  21576286.200 6
 108478334.208 8  84528572.881 7  20642734.121 7  20642734.028 7
 18 01 01 02 02 30.0000000  0  9G07G08G10G16G18G20G21G26G27          0.000000000
 127236747.300 7  99145488.393 4  24212342.360 4  24212345.054 4
 123199244.621 7  95999420.198 4  23444033.788 4  23444032.073 4
 121419787.657 7  94612833.904 5  23105417.389 5  23105416.350 5
 107218902.784 7  83547169.550 6  20403074.845 6  20403076.665 6
 116120460.451 8  90483468.098 5  22096985.082 5  22096986.134 5
 122573090.531 7  95511496.924 4  23324877.483 4  23324878.293 4
 117229569.207 8  91347709.589 6  22308040.006 6  22308041.498 6
 113461723.783 8  88411734.502 6  21591047.269 6  21591045.323 6
 108431742.752 8  84492267.854 7  20633868.231 7  20633867.887 7
 18 01 01 02 03 00.0000000  0  9G07G08G10G16G18G20G21G26G27          0.000000000
 127188947.385 7  99108241.724 4  24203247.049 4  24203248.848 4
 123108506.371 7  95928715.124 4  23426767.664 4  23426765.885 4
 121322989.835 7  94537407.037 5  23086997.809 5  23086996.242 5
 107240286.733 7  83563832.358 6  20407144.039 6  20407146.164 6
 116086543.860 8  90457039.585 5  22090530.424 5  22090532.278 5
 122637298.276 7  95561528.952 4  23337095.507 4  23337097.397 4
 117292646.577 8  91396860.796 6  22320042.614 6  22320044.724 6
 113539690.186 8  88472487.528 6  21605883.750 6  21605881.766 6
 108385487.159 8  84456224.539 7  20625066.244 7  20625065.950 7
 18 01 01 02 03 30.0000000  0  9G07G08G10G16G18G20G21G26G27          0.000000000
 127141660.360 7  99071394.700 4  24194248.109 4  24194250.086 4
 123017886.812 7  95858102.478 4  23409521.971 4  23409521.433 4
 121226442.576 7  94462175.415 5  23068625.272 5  23068624.136 5
 107262231.172 7  83580931.917 6  20411319.801 6  20411321.908 6
 116053101.526 7  90430980.642 5  22084166.380 5  22084168.653 5
 122701985.474 7  95611934.564 4  23349405.003 4  23349406.725 4
 117355966.943 8  91446201.336 6  22332092.363 6  22332094.494 6
 113618061.983 8  88533556.458 6  21620797.291 6  21620795.367 6
 108339568.312 8  84420443.616 7  20616328.090 7  20616327.549 7
 18 01 01 02 04 00.0000000  0  9G07G08G10G16G18G20G21G26G27          0.000000000
 127094887.575 7  99034948.388 4  24185346.991 4  24185349.343 4
 122927387.156 7  95787583.264 4  23392300.053 4  23392299.236 4
 121130148.710 7  94387141.249 5  23050300.692 5  23050299.911 5
 107284735.982 7  83598468.118 6  20415602.288 6  20415604.134 6
 116020134.298 8  90405291.909 5  22077892.975 5  22077895.293 5
 122767150.109 7  95662712.193 4  23361804.969 4  23361807.434 4
 117419528.852 8  91495730.096 6  22344187.730 6  22344189.561 6
 113696837.420 8  88594939.901 6  21635787.632 6  21635785.836 6
 108293987.093 8  84384925.795 7  20607654.255 7  20607653.749 7
 18 01 01 02 04 30.0000000  0  9G07G08G10G16G18G20G21G26G27          0.000000000
 127048630.970 7  98998904.275 4  24176545.094 4  24176547.592 4
 122837008.442 7  95717158.352 4  23375102.094 4  23375101.287 4
 121034111.191 7  94312306.832 5  23032025.363 5  23032024.808 5
 107307801.053 7  83616440.893 6  20419991.427 6  20419993.315 6
 115987643.734 8  90379974.593 5  22071710.206 5  22071712.063 5
 122832789.833 7  95713860.049 4  23374296.227 4  23374298.411 4
 117483331.167 8  91545446.180 6  22356329.022 6  22356330.726 6
 113776014.691 8  88656636.463 6  21650854.930 6  21650852.744 6
 108248744.259 8  84349671.641 7  20599044.817 7  20599044.425 7
 18 01 01 02 05 00.0000000  0  9G07G08G10G16G18G20G21G26G27          0.000000000
 127002891.679 7  98963263.251 4  24167841.032 4  24167843.152 4
 122746751.201 7  95646828.056 5  23357927.245 5  23357926.120 5
 120938332.978 7  94237674.477 5  23013799.629 5  23013798.741 5
 107331426.223 8  83634850.113 6  20424487.102 6  20424489.170 6
 115955630.981 7  90355029.614 5  22065618.309 5  22065620.518 5
 122898902.369 7  95765376.319 4  23386877.030 4  23386878.511 4
 117547372.106 8  91595348.204 6  22368515.767 6  22368517.240 6
 113855591.988 8  88718644.755 6  21665997.843 6  21665995.710 6
 108203840.951 8  84314682.061 7  20590499.868 7  20590499.394 7
 18 01 01 02 05 30.0000000  0  9G07G08G10G16G18G20G21G26G27          0.000000000
 126957671.421 7  98928026.685 4  24159235.770 4  24159238.429 4
 122656616.495 7  95576593.209 4  23340774.494 4  23340774.082 4
 120842816.882 7  94163246.362 5  22995623.274 5  22995622.705 5
 107355610.315 7  83653694.843 6  20429089.233 6  20429091.280 6
 115924096.959 7  90330457.670 5  22059617.682 5  22059619.777 5
 122965485.917 6  95817259.634 4  23399547.739 4  23399549.010 4
 117611649.801 8  91645434.718 6  22380747.158 6  22380748.916 6
 113935567.514 8  88780963.327 6  21681216.773 6  21681214.788 6
 108159277.884 8  84279957.605 7  20582019.521 7  20582019.690 7
 18 01 01 02 06 00.0000000  0  9G07G08G10G16G18G20G21G26G27          0.000000000
 126912971.336 7  98893195.454 4  24150729.939 4  24150732.429 4
 122566605.943 7  95506455.134 4  23323646.007 4  23323644.875 4
 120747565.863 7  94089024.805 5  22977497.968 5  22977497.266 5
 107380354.215 7  83672975.801 6  20433797.964 6  20433800.111 6
 115893042.726 8  90306259.596 5  22053708.406 5  22053710.285 5
 123032538.287 7  95869508.235 4  23412307.219 4  23412308.347 4
 117676162.652 8  91695704.481 6  22393023.733 6  22393024.944 6
 114015939.417 8  88843590.770 6  21696511.140 6  21696509.061 6
 108115055.991 8  84245498.969 7  20573604.598 7  20573604.550 7
 18 01 01 02 06 30.0000000  0  9G07G08G10G16G18G20G21G26G27          0.000000000
 126868793.043 7  98858770.825 4  24142323.226 4  24142325.627 4
 122476719.921 7  95436414.106 5  23306542.091 5  23306540.497 5
 120652582.776 7  94015012.012 5  22959423.214 5  22959422.592 5
 107405657.406 7  83692692.572 6  20438613.128 6  20438614.793 6
 115862469.710 8  90282436.474 5  22047890.798 5  22047892.271 5
 123100056.926 6  95922120.173 4  23425155.993 4  23425157.368 4
 117740909.079 7  91746156.233 6  22405344.552 6  22405346.156 6
 114096705.909 8  88906525.694 6  21711880.236 6  21711878.160 6
 108071176.100 8  84211306.863 7  20565254.617 7  20565254.257 7
 18 01 01 02 07 00.0000000  0  9G07G08G10G16G18G20G21G26G27          0.000000000
 126825137.942 7  98824753.858 4  24134016.002 4  24134017.574 4
 122386959.619 7  95366471.044 5  23289461.691 5  23289460.014 5
 120557870.497 7  93941210.260 5  22941400.102 5  22941399.712 5
 107431519.384 7  83712844.748 6  20443534.524 6  20443536.212 6
 115832378.814 8  90258989.035 5  22042164.697 5  22042165.629 5
 123168040.038 7  95975094.013 4  23438092.424 4  23438093.835 4
 117805888.236 8  91796789.334 6  22417709.540 6  22417711.422 6
 114177865.111 8  88969766.608 6  21727324.255 6  21727322.339 6
 108027639.134 8  84177381.947 7  20556969.782 7  20556969.224 7
 18 01 01 02 07 30.0000000  0  9G07G08G10G16G18G20G21G26G27          0.000000000
 126782007.421 7  98791145.639 4  24125808.294 4  24125810.972 4
 122297326.171 7  95296626.795 5  23272404.034 5  23272403.286 5
 120463431.936 7  93867621.783 5  22923428.901 5  22923428.027 5
 107457940.086 7  83733432.307 6  20448562.211 6  20448563.863 6
 115802771.040 8  90235918.065 5  22036530.444 5  22036531.878 5
 123236485.178 7  96028427.907 4  23451116.042 4  23451119.128 4
 117871097.904 7  91847602.072 6  22430118.579 6  22430120.514 6
 114259415.139 8  89033312.101 6  21742843.083 6  21742840.568 6
 107984445.896 8  84143724.890 7  20548750.390 7  20548750.109 7
 18 01 01 02 08 00.0000000  0  9G07G08G10G16G18G20G21G26G27          0.000000000
 126739403.148 7  98757947.488 4  24117700.840 4  24117703.023 4
 122207820.470 7  95226882.092 4  23255371.319 4  23255370.899 4
 120369270.012 7  93794248.852 5  22905510.242 5  22905509.643 5
 107484918.851 7  83754454.721 6  20453696.098 6  20453697.766 6
 115773647.599 8  90213224.472 5  22030988.364 5  22030989.923 5
 123305390.200 6  96082120.160 4  23464228.418 4  23464230.702 4
 117936536.780 8  91898593.396 6  22442571.167 6  22442573.284 6
 114341354.207 8  89097160.702 6  21758435.193 6  21758433.425 6
 107941597.295 8  84110336.374 7  20540596.538 7  20540596.282 7
 18 01 01 02 08 30.0000000  0  9G07G08G10G16G18G20G21G26G27          0.000000000
 126697326.035 7  98725160.153 4  24109693.792 4  24109696.374 4
 122118443.413 7  95157237.644 5  23238363.637 5  23238363.389 5
 120275387.535 7  93721093.681 5  22887645.453 5  22887644.512 5
 107512455.093 8  83775911.512 6  20458935.928 6  20458937.736 6
 115745009.235 8  90190908.893 5  22025538.588 5  22025540.203 5
 123374752.915 6  96136169.051 3  23477428.026 3  23477429.665 3
 118002203.182 8  91949762.021 6  22455067.246 6  22455068.984 6
 114423680.364 8  89161310.958 6  21774101.357 6  21774099.597 6
 107899094.230 8  84077217.099 7  20532508.468 7  20532508.051 7
 18 01 01 02 09 00.0000000  0  9G07G08G10G16G18G20G21G26G27          0.000000000
 126655777.791 7  98692784.877 4  24101786.934 4  24101789.661 4
 122029196.367 7  95087694.523 5  23221381.211 5  23221379.009 5
 120181787.420 8  93648158.539 5  22869834.090 5  22869833.123 5
 107540548.794 7  83797802.700 6  20464281.882 6  20464284.226 6
 115716857.214 8  90168972.256 5  22020181.405 5  22020183.066 5
 123444571.151 7  96190572.856 4  23490714.679 4  23490716.139 4
 118068095.351 8  92001106.571 6  22467605.868 6  22467607.926 6
 114506391.793 8  89225761.403 6  21789841.124 6  21789839.107 6
 107856937.520 8  84044367.720 7  20524486.221 7  20524486.210 7
 18 01 01 02 09 30.0000000  0  9G07G08G10G16G18G20G21G26G27          0.000000000
 126614760.071 7  98660823.004 4  24093982.446 4  24093984.402 4
 121940080.017 7  95018253.221 5  23204422.694 5  23204420.734 5
 120088472.553 7  93575445.660 5  22852076.307 5  22852075.580 5
 107569199.719 7  83820128.096 6  20469733.944 6  20469735.956 6
 115689192.576 8  90147415.420 5  22014917.080 5  22014918.744 5
 123514842.409 7  96245329.694 4  23504086.521 4  23504088.560 4
 118134211.839 8  92052625.908 6  22480187.274 6  22480189.393 6
 114589486.551 8  89290510.562 6  21805653.591 6  21805651.394 6
 107815128.081 8  84011788.938 7  20516530.368 7  20516529.992 7
 18 01 01 02 10 00.0000000  0  9G07G08G10G16G18G20G21G26G27          0.000000000
 126574274.051 7  98629275.448 4  24086278.167 4  24086280.202 4
 121851095.605 7  94948914.729 5  23187488.977 5  23187488.011 5
 119995445.771 7  93502957.264 5  22834373.488 5  22834373.353 5
 107598407.061 7  83842887.064 6  20475291.880 6  20475293.957 6
 115662016.277 8  90126239.097 5  22009745.389 5  22009747.247 5
 123585564.591 6  96300437.906 4  23517543.909 4  23517546.518 4
 118200550.800 8  92104318.602 6  22492811.345 6  22492813.229 6
 114672962.735 8  89355556.932 6  21821538.029 6  21821536.576 6
 107773666.717 8  83979481.392 7  20508640.566 7  20508639.945 7
 18 01 01 02 10 30.0000000  0  9G07G08G10G16G18G20G21G26G27          0.000000000
 126534320.553 7  98598142.845 4  24078674.973 4  24078677.757 4
 121762244.345 7  94879679.967 5  23170581.186 5  23170580.294 5
 119902709.953 7  93430695.592 5  22816727.375 5  22816726.280 5
 107628169.819 7  83866078.807 6  20480955.812 6  20480957.624 6
 115635329.098 8  90105443.908 5  22004667.039 5  22004668.824 5
 123656735.388 7  96355895.661 4  23531087.734 4  23531089.847 4
 118267111.702 8  92156184.241 5  22505477.269 5  22505479.306 5
 114756818.445 8  89420899.038 6  21837495.622 6  21837493.616 6
 107732554.339 8  83947445.777 7  20500817.096 7  20500816.790 7
 18 01 01 02 11 00.0000000  0  9G07G08G10G16G18G20G21G26G27          0.000000000
 126494901.093 7  98567426.380 4  24071173.799 4  24071176.156 4
 121673526.993 7  94810549.619 5  23153699.684 5  23153698.166 5
 119810267.965 7  93358662.890 5  22799136.356 5  22799135.240 5
 107658488.440 7  83889703.710 6  20486725.099 6  20486727.070 6
 115609131.966 8  90085030.576 5  21999681.859 5  21999683.460 5
 123728352.551 7  96411701.275 4  23544716.041 4  23544717.977 4
 118333892.436 8  92208221.163 6  22518185.249 6  22518186.899 6
 114841051.749 8  89486535.382 6  21853524.435 6  21853522.658 6
 107691791.804 8  83915682.770 7  20493060.355 7  20493059.920 7
 18 01 01 02 11 30.0000000  0  9G07G08G10G16G18G20G21G26G27          0.000000000
 126456016.927 7  98537127.011 4  24063774.391 4  24063776.694 4
 121584944.432 7  94741524.277 5  23136842.552 5  23136841.063 5
 119718122.649 7  93286861.346 5  22781601.353 5  22781600.679 5
 107689362.427 7  83913761.351 6  20492600.131 6  20492602.080 6
 115583425.997 8  90064999.970 5  21994789.913 5  21994791.862 5
 123800413.841 6  96467852.928 3  23558428.970 3  23558430.361 3
 118400891.375 7  92260428.135 6  22530934.865 6  22530936.792 6
 114925660.726 8  89552464.435 6  21869625.071 6  21869623.181 6
 107651379.950 8  83884193.013 7  20485370.081 7  20485369.503 7
 18 01 01 02 12 00.0000000  0  9G07G08G10G16G18G20G21G26G27          0.000000000
 126417669.333 7  98507245.798 4  24056476.980 4  24056479.330 4
 121496497.785 7  94672604.795 5  23120010.860 5  23120010.731 5
 119626276.851 7  93215293.191 5  22764123.243 5  22764122.943 5
 107720791.106 7  83938251.222 6  20498580.775 6  20498582.715 6
 115558211.990 8  90045352.704 5  21989992.122 5  21989993.805 5
 123872916.731 6  96524348.702 4  23572225.812 4  23572227.831 4
 118468106.409 8  92312803.492 5  22543725.159 5  22543727.591 5
 115010643.423 8  89618684.709 6  21885796.796 6  21885794.803 6
 107611319.655 8  83852977.197 7  20477746.725 7  20477746.572 7
 18 01 01 02 12 30.0000000  0  9G07G08G10G16G18G20G21G26G27          0.000000000
 126379859.602 7  98477783.650 4  24049282.171 4  24049284.679 4
 121408188.326 7  94603792.266 5  23103206.520 5  23103205.239 5
 119534733.450 7  93143960.693 5  22746703.693 5  22746702.710 5
 107752773.638 7  83963172.667 6  20504667.006 6  20504669.118 6
 115533490.825 8  90026089.469 5  21985287.823 5  21985289.614 5
 123945859.001 7  96581186.835 4  23586106.310 4  23586107.726 4
 118535536.872 8  92365346.700 5  22556557.012 5  22556558.890 5
 115095997.927 8  89685194.696 6  21902039.277 6  21902037.385 6
 107571611.742 8  83822035.980 7  20470190.582 7  20470190.181 7
 18 01 01 02 13 00.0000000  0  9G07G08G10G16G18G20G21G26G27          0.000000000
 126342588.773 7  98448741.452 4  24042190.124 4  24042192.065 4
 121320016.935 7  94535087.297 5  23086428.670 5  23086427.167 5
 119443495.243 7  93072866.001 5  22729341.590 5  22729340.726 5
 107785309.874 7  83988525.573 6  20510858.549 6  20510860.291 6
 115509263.577 8  90007211.110 5  21980677.490 5  21980679.502 5
 124019238.636 6  96638365.793 4  23600069.810 4  23600071.686 4
 118603181.223 8  92418056.577 6  22569429.516 6  22569431.289 6
 115181722.191 8  89751992.823 6  21918351.948 6  21918349.982 6
 107532257.104 8  83791370.034 7  20462701.517 7  20462701.085 7
 18 01 01 02 13 30.0000000  0  9G07G08G10G16G18G20G21G26G27          0.000000000
 126305858.410 7  98420120.382 4  24035199.784 4  24035202.658 4
 121231984.639 7  94466490.712 5  23069676.157 5  23069675.269 5
 119352565.108 7  93002011.347 5  22712037.604 5  22712037.297 5
 107818399.007 7  84014309.309 6  20517155.139 6  20517156.866 6
 115485530.712 8  89988717.967 5  21976161.272 5  21976163.169 5
 124093052.831 7  96695883.357 4  23614115.829 4  23614118.286 4
 118671037.666 8  92470931.737 5  22582341.742 5  22582343.859 5
 115267814.302 8  89819077.592 6  21934734.766 6  21934732.916 6
 107493256.557 8  83760980.012 7  20455280.050 7  20455280.002 7
 18 01 01 02 14 00.0000000  0  9G07G08G10G16G18G20G21G26G27          0.000000000
 126269669.264 7  98391921.033 4  24028313.248 4  24028315.905 4
 121144092.515 7  94398003.370 4  23052949.972 4  23052949.770 4
 119261945.663 7  92931398.805 5  22694793.552 5  22694793.011 5
 107852040.008 7  84040523.073 6  20523556.584 6  20523558.648 6
 115462293.437 8  89970611.027 5  21971739.495 5  21971741.185 5
 124167299.367 7  96753737.823 4  23628245.021 4  23628246.685 4
 118739104.464 8  92523970.796 5  22595294.928 5  22595296.579 5
 115354272.293 8  89886447.441 6  21951187.426 6  21951185.361 6
 107454611.010 8  83730866.592 7  20447925.997 7  20447925.927 7
 18 01 01 02 14 30.0000000  0  9G07G08G10G16G18G20G21G26G27          0.000000000
 126234022.563 7  98364144.407 4  24021530.320 4  24021532.830 4
 121056341.797 7  94329626.186 5  23036251.739 5  23036251.844 5
 119171640.118 7  92861030.851 5  22677609.021 5  22677608.281 5
 107886233.388 7  84067167.260 6  20530063.090 6  20530065.496 6
 115439552.413 8  89952890.766 5  21967411.962 5  21967413.876 5
 124241975.807 7  96811927.258 4  23642455.497 4  23642457.075 4
 118807380.196 8  92577172.670 5  22608287.116 5  22608289.130 5
 115441094.152 8  89954100.848 6  21967708.886 6  21967707.106 6
 107416321.256 8  83701030.431 7  20440639.774 7  20440639.490 7
 18 01 01 02 15 00.0000000  0  9G07G08G10G16G18G20G21G26G27          0.000000000
 126198919.486 7  98336791.324 4  24014850.476 4  24014852.556 4
 120968733.443 7  94261359.962 5  23019581.101 5  23019579.833 5
 119081651.076 7  92790909.536 5  22660485.166 5  22660484.007 5
 107920977.964 7  84094240.954 6  20536674.965 6  20536677.207 6
 115417308.366 7  89935557.755 5  21963178.945 5  21963180.864 5
 124317079.958 6  96870449.996 4  23656746.682 4  23656748.967 4
 118875863.614 8  92630536.364 5  22621318.765 5  22621320.820 5
 115528277.866 8  90022036.207 6  21984299.563 6  21984297.101 6
 107378388.198 8  83671472.190 7  20433421.440 7  20433421.238 7
 18 01 01 02 15 30.0000000  0  9G07G08G10G16G18G20G21G26G27          0.000000000
 126164361.152 7  98309862.761 4  24008274.186 4  24008276.259 4
 120881268.603 7  94193205.555 5  23002937.615 5  23002936.254 5
 118991981.420 8  92721037.082 6  22643421.441 6  22643420.262 6
 107956273.225 7  84121743.749 6  20543391.517 6  20543393.542 6
 115395562.179 8  89918612.684 5  21959040.539 5  21959042.561 5
 124392609.419 6  96929304.121 3  23671120.114 3  23671121.693 3
 118944553.371 8  92684060.846 5  22634390.154 5  22634392.453 5
 115615821.474 8  90090252.001 6  22000958.508 6  22000956.317 6
 107340812.595 8  83642192.517 7  20426271.011 7  20426270.412 7
 18 01 01 02 16 00.0000000  0  9G07G08G10G16G18G20G21G26G27          0.000000000
 126130348.825 7  98283359.641 4  24001801.396 4  24001804.618 4
 120793948.081 7  94125163.606 5  22986320.627 5  22986319.693 5
 118902633.896 7  92651415.638 5  22626418.638 5  22626418.052 5
 107992117.968 7  84149674.720 6  20550212.713 6  20550214.319 6
 115374314.342 7  89902055.949 5  21954997.338 5  21954999.431 5
 124468561.885 6  96988487.878 3  23685572.867 3  23685574.909 3
 119013447.665 8  92737744.717 5  22647500.250 5  22647502.173 5
 115703722.954 8  90158746.646 6  22017685.538 6  22017683.460 6
 107303595.362 8  83613192.081 7  20419188.677 7  20419188.184 7
 18 01 01 02 16 30.0000000  0  9G07G08G10G16G18G20G21G26G27          0.000000000
 126096883.190 7  98257282.503 4  23995433.184 4  23995435.869 4
 120706773.013 7  94057234.998 5  22969731.399 5  22969730.467 5
 118813611.393 8  92582047.464 5  22609477.775 5  22609477.888 5
 108028512.184 7  84178033.847 6  20557138.264 6  20557140.173 6
 115353566.027 7  89885888.447 5  21951048.855 5  21951051.389 5
 124544934.668 6  97047999.142 3  23700106.016 3  23700108.341 3
 119082544.868 8  92791586.684 5  22660649.132 5  22660651.114 5
 115791980.261 8  90227518.575 6  22034480.679 6  22034478.496 6
 107266737.300 8  83584471.519 7  20412174.954 7  20412174.352 7
 18 01 01 02 17 00.0000000  0  9G07G08G10G16G18G20G21G26G27          0.000000000
 126063965.655 7  98231632.468 4  23989169.862 4  23989171.708 4
 120619744.616 7  93989420.684 5  22953171.116 5  22953169.519 5
 118724916.605 7  92512934.665 5  22592600.248 5  22592599.528 5
 108065454.904 7  84206820.381 6  20564168.258 6  20564170.257 6
 115333317.599 7  89870110.468 5  21947195.756 5  21947198.284 5
 124621725.536 7  97107836.194 4  23714719.292 4  23714721.399 4
 119151843.428 8  92845585.564 5  22673835.848 5  22673838.393 5
 115880591.362 8  90296566.184 6  22051342.636 6  22051340.390 6
 107230239.265 8  83556031.491 7  20405229.693 7  20405229.288 7
 18 01 01 02 17 30.0000000  0  9G07G08G10G16G18G20G21G26G27          0.000000000
 126031596.716 7  98206409.919 4  23983010.104 4  23983012.481 4
 120532864.244 7  93921721.713 5  22936637.386 5  22936636.600 5
 118636552.400 7  92444079.454 6  22575785.570 6  22575784.818 6
 108102945.015 7  84236033.443 6  20571302.321 6  20571304.515 6
 115313570.033 7  89854722.766 5  21943438.108 5  21943440.153 5
 124698932.359 6  97167997.385 3  23729410.871 3  23729413.218 3
 119221342.152 7  92899740.418 5  22687061.034 5  22687063.320 5
 115969554.212 8  90365887.893 6  22068271.537 6  22068269.337 6
 107194102.113 8  83527872.668 7  20398353.084 7  20398352.418 7
 18 01 01 02 18 00.0000000  0  9G07G08G10G16G18G20G21G26G27          0.000000000
 125999777.569 7  98181615.765 4  23976954.503 4  23976957.677 4
 120446132.727 7  93854138.730 5  22920132.815 5  22920131.686 5
 118548521.535 7  92375483.967 6  22559033.360 6  22559032.883 6
 108140982.194 7  84265672.794 6  20578540.599 6  20578542.433 6
 115294323.806 7  89839725.718 5  21939775.747 5  21939777.663 5
 124776552.469 6  97228480.575 4  23744181.758 4  23744183.832 4
 119291038.941 8  92954049.614 5  22700324.028 5  22700326.013 5
 116058866.818 8  90435482.127 6  22085267.343 6  22085265.073 6
 107158326.648 8  83499995.683 7  20391545.432 7  20391544.618 7
 18 01 01 02 18 30.0000000  0  9G07G08G10G16G18G20G21G26G27          0.000000000
 125968509.441 7  98157251.003 4  23971004.441 4  23971007.456 4
 120359550.938 7  93786672.416 5  22903658.051 5  22903656.258 5
 118460826.755 7  92307150.397 5  22542345.672 5  22542345.056 5
 108179565.840 7  84295737.979 6  20585882.802 6  20585884.993 6
 115275579.594 8  89825119.863 5  21936209.006 5  21936210.942 5
 124854583.045 6  97289283.640 3  23759030.644 3  23759031.782 3
 119360933.060 7  93008512.570 5  22713624.511 5  22713626.926 5
 116148527.078 8  90505347.256 6  22102329.029 6  22102327.043 6
 107122913.689 8  83472401.177 7  20384806.433 7  20384805.578 7
 18 01 01 02 19 00.0000000  0 10G07G08G10G15G16G18G20G21G26G27       0.000000000
 125937793.162 7  98133316.250 4  23965159.892 4  23965161.568 4
 120273120.205 7  93719323.821 5  22887210.999 5  22887208.663 5
 118373470.891 7  92239080.911 6  22525722.867 6  22525722.225 6
 131956280.756 5 102823052.64611  25110439.969 1  25110442.061 1
 108218694.965 7  84326228.199 6  20593328.872 6  20593330.621 6
 115257337.977 8  89810905.642 5  21932737.757 5  21932739.431 5
 124933022.220 6  97350405.085 3  23773956.826 3  23773958.385 3
 119431022.963 7  93063128.096 5  22726962.525 5  22726964.182 5
 116238532.943 8  90575481.693 6  22119456.568 6  22119454.563 6
 107087864.093 8  83445089.810 7  20378136.548 7  20378135.963 7
 18 01 01 02 19 30.0000000  0 10G07G08G10G15G16G18G20G21G26G27       0.000000000
 125907629.844 7  98109812.337 4  23959419.831 4  23959422.276 4
 120186841.692 7  93652093.810 5  22870791.321 5  22870790.725 5
 118286456.701 8  92171277.645 6  22509164.837 6  22509163.069 6
 131912941.505 6 102789281.870 2  25102193.966 2  25102194.685 2
 108258368.801 8  84357142.861 6  20600878.661 6  20600880.415 6
 115239600.013 8  89797083.864 5  21929361.937 5  21929363.868 5
 125011867.406 6  97411842.897 3  23788960.631 3  23788961.993 3
 119501306.848 7  93117894.751 5  22740337.184 5  22740338.957 5
 116328882.331 8  90645883.817 6  22136649.407 6  22136647.292 6
 107053178.668 8  83418062.212 7  20371535.901 7  20371535.891 7
 18 01 01 02 20 00.0000000  0 10G07G08G10G15G16G18G20G21G26G27       0.000000000
 125878020.039 7  98086739.762 4  23953785.193 4  23953787.632 4
 120100716.307 7  93584983.129 5  22854402.655 5  22854401.855 5
 118199786.880 7  92103742.744 6  22492671.888 6  22492671.154 6
 131870063.518 6 102755870.487 2  25094035.321 2  25094035.684 2
 108298586.375 7  84388481.231 6  20608531.968 6  20608533.721 6
 115222366.019 8  89783654.793 5  21926082.395 5  21926084.575 5
 125091115.998 6  97473595.046 3  23804041.218 3  23804042.301 3
 119571783.235 7  93172811.422 5  22753747.974 5  22753750.116 5
 116419573.167 8  90716551.990 6  22153907.209 6  22153905.285 6
 107018858.253 8  83391319.031 7  20365004.761 7  20365004.855 7
 18 01 01 02 20 30.0000000  0 10G07G08G10G15G16G18G20G21G26G27       0.000000000
 125848964.939 7  98064099.433 4  23948256.551 4  23948257.731 4
 120014745.425 7  93517992.885 5  22838044.020 5  22838041.815 5
 118113464.286 7  92036478.388 6  22476244.640 6  22476244.014 6
 131827648.459 6 102722819.909 1  25085964.096 1  25085965.267 1
 108339347.475 7  84420243.122 6  20616288.596 6  20616290.405 6
 115205636.617 7  89770618.912 5  21922898.806 5  21922900.821 5
 125170765.687 6  97535659.772 3  23819197.175 3  23819199.757 3
 119642450.547 7  93227876.860 5  22767195.386 5  22767197.750 5
 116510603.391 8  90787484.634 6  22171229.488 6  22171227.808 6
 106984903.676 8  83364860.933 7  20358543.534 7  20358543.110 7
 18 01 01 02 21 00.0000000  0 10G07G08G10G15G16G18G20G21G26G27       0.000000000
 125820465.174 7  98041891.834 4  23942833.063 4  23942835.633 4
 119928929.947 7  93451123.687 5  22821712.711 5  22821711.585 5
 118027491.571 8  91969486.683 6  22459884.570 6  22459884.235 6
 131785699.391 6 102690132.239 2  25077981.494 2  25077982.047 2
 108380650.673 7  84452427.415 6  20624148.367 6  20624150.003 6
 115189412.327 8  89757976.622 5  21919811.477 5  21919813.384 5
 125250814.067 6  97598035.131 3  23834430.160 3  23834432.676 3
 119713307.029 7  93283089.717 5  22780679.076 5  22780681.049 5
 116601970.888 8  90858680.090 6  22188616.136 6  22188614.047 6
 106951315.757 8  83338688.529 7  20352152.141 7  20352151.599 7
 18 01 01 02 21 30.0000000  0 10G07G08G10G15G16G18G20G21G26G27       0.000000000
 125792521.795 7  98020117.738 4  23937515.584 4  23937517.840 4
 119843271.369 7  93384376.726 5  22805412.332 5  22805411.679 5
 117941871.521 7  91902769.765 6  22443591.547 6  22443591.129 6
 131744217.662 6 102657808.851 2  25070087.350 2  25070088.383 2
 108422495.390 7  84485033.692 6  20632111.044 6  20632112.720 6
 115173693.263 8  89745728.005 5  21916820.364 5  21916822.405 5
 125331258.328 6  97660718.972 3  23849739.005 3  23849740.262 3
 119784352.001 7  93338449.434 5  22794198.598 5  22794200.905 5
 116693673.550 8  90930136.702 6  22206066.576 6  22206064.929 6
 106918095.287 8  83312802.463 7  20345830.577 7  20345830.111 7
 18 01 01 02 22 00.0000000  0 10G07G08G10G15G16G18G20G21G26G27       0.000000000
 125765135.175 7  97998777.515 4  23932304.203 4  23932306.272 4
 119757770.248 7  93317752.528 5  22789142.628 5  22789140.743 5
 117856606.834 8  91836329.769 6  22427366.644 6  22427365.280 6
 131703205.479 6 102625851.346 2  25062282.996 2  25062283.476 2
 108464879.965 7  84518060.619 6  20640176.281 6  20640178.423 6
 115158480.578 8  89733873.985 5  21913925.422 5  21913927.307 5
 125412095.863 6  97723709.266 3  23865121.906 3  23865122.812 3
 119855583.891 7  93393954.814 5  22807753.937 5  22807755.553 5
 116785709.262 8  91001852.837 6  22223580.893 6  22223578.733 6
 106885243.090 8  83287203.358 7  20339579.164 7  20339578.512 7
 18 01 01 02 22 30.0000000  0 10G07G08G10G15G16G18G20G21G26G27       0.000000000
 125738306.774 7  97977872.259 4  23927198.938 4  23927200.822 4
 119672427.972 7  93251252.088 5  22772902.361 5  22772900.943 5
 117771700.284 8  91770168.840 6  22411209.407 6  22411208.531 6
 131662665.058 6 102594261.409 2  25054568.373 2  25054569.889 2
 108507804.622 8  84551508.419 6  20648344.474 6  20648346.690 6
 115143774.904 8  89722415.028 5  21911127.241 5  21911128.970 5
 125493324.858 6  97787004.619 3  23880578.668 3  23880580.064 3
 119927000.913 7  93449604.439 5  22821344.003 5  22821345.700 5
 116878075.916 8  91073826.860 6  22241157.522 6  22241155.367 6
 106852760.028 8  83261891.872 7  20333397.754 7  20333397.299 7
 18 01 01 02 23 00.0000000  0 10G07G08G10G15G16G18G20G21G26G27       0.000000000
 125712037.351 7  97957402.584 4  23922199.641 4  23922202.026 4
 119587245.778 7  93184876.327 5  22756691.938 5  22756691.231 5
 117687154.555 8  91704289.061 6  22395120.580 6  22395120.321 6
 131622598.524 6 102563040.841 2  25046943.488 2  25046944.145 2
 108551267.876 7  84585375.884 6  20656615.097 6  20656617.289 6
 115129576.172 8  89711351.095 5  21908424.798 5  21908426.796 5
 125574942.763 6  97850602.966 3  23896110.246 3  23896111.942 3
 119998601.765 7  93505397.314 5  22834968.813 5  22834971.082 5
 116970771.434 8  91146057.125 6  22258797.063 6  22258794.943 6
 106820646.830 8  83236868.615 7  20327286.772 7  20327286.504 7
 18 01 01 02 23 30.0000000  0 10G07G08G10G15G16G18G20G21G26G27       0.000000000
 125686327.024 7  97937368.568 4  23917307.033 4  23917309.374 4
 119502224.431 7  93118625.936 5  22740513.420 5  22740511.709 5
 117602972.382 7  91638692.577 6  22379101.100 6  22379100.664 6
 131583007.351 6 102532190.635 2  25039409.162 2  25039410.647 2
 108595268.389 7  84619661.988 6  20664988.210 6  20664990.575 6
 115115885.073 8  89700682.734 5  21905819.515 5  21905821.485 5
 125656946.825 6  97914502.225 3  23911715.269 3  23911716.251 3
 120070384.948 7  93561332.272 5  22848628.851 5  22848630.935 5
 117063793.620 8  91218541.943 6  22276498.396 6  22276496.284 6
 106788904.343 8  83212134.212 7  20321246.388 7  20321245.590 7
 18 01 01 02 24 00.0000000  0 10G07G08G10G15G16G18G20G21G26G27       0.000000000
 125661176.964 7  97917771.122 4  23912521.364 4  23912523.686 4
 119417365.476 7  93052502.132 5  22724365.868 5  22724363.859 5
 117519156.469 8  91573381.478 6  22363151.944 6  22363150.793 6
 131543894.025 6 102501712.705 2  25031965.989 2  25031968.258 2
 108639806.048 7  84654366.657 6  20673463.482 6  20673465.599 6
 115102702.240 7  89690410.409 5  21903310.988 5  21903313.431 5
 125739334.623 6  97978700.520 3  23927393.033 3  23927394.547 3
 120142348.990 7  93617408.144 5  22862323.379 5  22862324.943 5
 117157140.357 8  91291279.662 6  22294261.483 6  22294259.462 6
 106757533.352 8  83187689.281 7  20315276.553 7  20315276.295 7
 18 01 01 02 24 30.0000000  0 10G07G08G10G15G16G18G20G21G26G27       0.000000000
 125636587.662 7  97898610.587 4  23907842.236 4  23907844.467 4
 119332670.135 7  92986505.759 5  22708247.748 5  22708247.136 5
 117435709.430 8  91508357.836 6  22347272.868 6  22347271.409 6
 131505260.329 6 102471608.562 2  25024614.141 2  25024616.429 2
 108684879.653 7  84689488.941 6  20682040.895 6  20682042.665 6
 115090028.027 8  89680534.408 5  21900899.250 5  21900901.172 5
 125822103.533 6  98043195.775 3  23943142.816 3  23943144.754 3
 120214492.507 7  93673623.871 5  22876051.528 5  22876053.919 5
 117250809.510 8  91364268.616 6  22312086.386 6  22312083.896 6
 106726534.699 8  83163534.488 7  20309377.682 7  20309377.391 7
 18 01 01 02 25 00.0000000  0 10G07G08G10G15G16G18G20G21G26G27       0.000000000
 125612559.670 7  97879887.486 4  23903269.837 4  23903272.270 4
 119248139.178 7  92920637.495 5  22692162.601 5  22692161.166 5
 117352634.047 8  91443623.785 6  22331463.818 6  22331463.064 6
 131467108.270 6 102441879.715 2  25017353.612 2  25017356.863 2
 108730487.897 7  84725027.835 6  20690720.069 6  20690721.862 6
 115077862.953 8  89671055.140 5  21898584.242 5  21898586.308 5
 125905250.971 6  98107986.015 3  23958965.367 3  23958967.590 3
 120286813.422 7  93729977.838 5  22889813.689 5  22889815.643 5
 117344798.961 8  91437507.136 6  22329972.022 6  22329970.116 6
 106695909.144 8  83139670.434 7  20303549.798 7  20303549.692 7
 18 01 01 02 25 30.0000000  0 10G07G08G10G15G16G18G20G21G26G27       0.000000000
 125589094.189 7  97861602.684 4  23898804.975 4  23898807.104 4
 119163773.804 7  92854898.281 5  22676108.698 5  22676106.776 5
 117269932.955 8  91379181.388 6  22315725.862 6  22315725.036 6
 131429439.910 6 102412527.769 2  25010185.467 2  25010187.260 2
 108776630.010 7  84760982.723 6  20699500.726 6  20699502.404 6
 115066207.247 8  89661972.787 5  21896366.245 5  21896368.227 5
 125988774.521 6  98173069.310 3  23974859.123 3  23974861.413 3
 120359311.100 7  93786469.517 5  22903610.218 5  22903611.637 5
 117439106.497 8  91510993.535 6  22347918.177 6  22347916.302 6
 106665657.491 8  83116097.719 7  20297792.933 7  20297792.666 7
 18 01 01 02 26 00.0000000  0 10G07G08G10G15G16G18G20G21G26G27       0.000000000
 125566191.497 7  97843756.444 4  23894446.498 4  23894448.561 4
 119079575.193 7  92789288.990 5  22660085.596 5  22660084.839 5
 117187608.846 7  91315032.734 6  22300060.176 6  22300059.612 6
 131392256.826 5 102383554.005 1  25003109.853 1  25003111.052 1
 108823304.701 7  84797352.613 6  20708382.678 6  20708384.166 6
 115055061.155 8  89653287.532 5  21894245.306 5  21894246.990 5
 126072671.668 6  98238443.721 3  23990824.153 3  23990826.874 3
 120431983.526 7  93843097.400 5  22917438.984 5  22917440.823 5
 117533729.951 7  91584726.092 6  22365924.681 6  22365922.404 6
 106635780.548 8  83092816.984 7  20292107.609 7  20292107.143 7
 18 01 01 02 26 30.0000000  0 10G07G08G10G15G16G18G20G21G26G27       0.000000000
 125543852.414 7  97826349.352 4  23890195.264 4  23890197.897 4
 118995544.705 7  92723810.693 5  22644094.550 5  22644094.373 5
 117105664.316 8  91251179.878 6  22284466.926 6  22284465.837 6
 131355561.114 6 102354959.899 2  24996126.833 2  24996129.064 2
 108870511.348 8  84834136.995 6  20717365.797 6  20717367.409 6
 115044425.102 8  89644999.717 5  21892221.355 5  21892222.935 5
 126156939.675 6  98304107.123 3  24006859.803 3  24006862.220 3
 120504829.800 7  93899860.739 5  22931300.804 5  22931302.655 5
 117628667.214 8  91658703.172 6  22383990.694 6  22383988.549 6
 106606279.073 8  83069828.830 7  20286493.787 7  20286493.567 7
 18 01 01 02 27 00.0000000  0 10G07G08G10G15G16G18G20G21G26G27       0.000000000
 125522077.832 7  97809382.116 4  23886051.536 4  23886054.016 4
 118911683.528 7  92658464.338 5  22628136.644 5  22628135.952 5
 117024102.067 8  91187624.893 6  22268946.143 6  22268944.979 6
 131319354.653 6 102326747.104 2  24989237.266 2  24989239.889 2
 108918248.489 8  84871334.763 6  20726449.679 6  20726451.482 6
 115034299.671 8  89637109.782 5  21890294.439 5  21890296.479 5
 126241576.208 6  98370057.627 3  24022966.587 3  24022968.313 3
 120577848.476 7  93956758.403 5  22945195.776 5  22945198.039 5
 117723916.060 8  91732923.050 6  22402115.919 6  22402113.638 6
 106577153.889 8  83047133.879 7  20280951.412 7  20280951.217 7
 18 01 01 02 27 30.0000000  0 10G07G08G10G15G16G18G20G21G26G27       0.000000000
 125500867.314 7  97792854.444 4  23882015.946 4  23882017.658 4
 118827992.802 7  92593250.793 5  22612210.549 5  22612210.078 5
 116942924.723 8  91124369.822 6  22253498.033 6  22253497.511 6
 131283639.512 6 102298917.162 2  24982440.891 2  24982443.176 2
 108966514.884 7  84908944.927 6  20735634.383 6  20735636.336 6
 115024685.047 8  89629617.884 5  21888464.701 5  21888466.696 5
 126326578.682 6  98436293.339 3  24039141.899 3  24039143.323 3
 120651037.710 7  94013788.975 5  22959123.315 5  22959125.349 5
 117819474.317 8  91807384.034 6  22420299.835 6  22420297.571 6
 106548405.773 8  83024732.745 7  20275481.079 7  20275480.404 7
 18 01 01 02 28 00.0000000  0 10G07G08G10G15G16G18G20G21G26G27       0.000000000
 125480222.049 7  97776767.205 4  23878087.192 4  23878089.210 4
 118744473.498 7  92528170.810 5  22596317.016 5  22596316.909 5
 116862134.921 8  91061416.739 6  22238124.291 6  22238123.771 6
 131248417.024 6 102271471.044 2  24975738.180 2  24975740.732 2
 109015309.341 7  84946966.589 6  20744919.416 6  20744921.624 6
 115015581.629 7  89622524.329 5  21886732.712 5  21886734.672 5
 126411944.580 6  98502812.231 3  24055386.857 3  24055388.115 3
 120724396.514 7  94070951.688 5  22973083.278 5  22973085.055 5
 117915339.770 8  91882084.407 6  22438542.106 6  22438540.049 6
 106520035.479 8  83002626.034 7  20270082.440 7  20270081.562 7
 18 01 01 02 28 30.0000000  0 10G07G08G10G15G16G18G20G21G26G27       0.000000000
 125460142.404 7  97761120.731 4  23874265.949 4  23874267.973 4
 118661126.918 7  92463225.447 5  22580457.973 5  22580457.067 5
 116781735.315 8  90998767.710 6  22222825.211 6  22222824.357 6
 131213689.431 6 102244410.686 2  24969129.533 2  24969131.838 2
 109064631.897 7  84985399.744 6  20754305.361 6  20754307.241 6
 115006989.717 7  89615829.347 5  21885097.453 5  21885099.671 5
 126497671.214 6  98569612.203 3  24071700.145 3  24071701.946 3
 120797923.159 7  94128245.164 5  22987075.321 5  22987076.785 5
 118011510.282 8  91957022.458 6  22456842.749 6  22456840.333 6
 106492043.783 8  82980814.325 7  20264755.718 7  20264754.877 7
 18 01 01 02 29 00.0000000  0 10G07G08G10G15G16G18G20G21G26G27       0.000000000
 125440629.049 7  97745915.497 4  23870552.513 4  23870554.997 4
 118577954.357 7  92398415.673 5  22564631.018 5  22564628.840 5
 116701728.450 8  90936424.714 6  22207600.745 6  22207599.391 6
 131179458.478 6 102217737.308 2  24962615.479 2  24962617.454 2
 109114481.048 8  85024243.236 6  20763791.376 6  20763793.259 6
 114998909.476 8  89609533.064 5  21883559.760 5  21883561.823 5
 126583756.104 6  98636691.362 3  24088081.684 3  24088082.180 3
 120871616.264 7  94185668.359 5  23001098.494 5  23001100.126 5
 118107983.593 8  92032196.463 6  22475201.071 6  22475199.428 6
 106464431.498 8  82959298.263 7  20259501.208 7  20259500.592 7
 18 01 01 02 29 30.0000000  0 10G07G08G10G15G16G18G20G21G26G27       0.000000000
 125421682.398 7  97731151.866 4  23866947.329 4  23866949.887 4
 118494956.616 7  92333742.129 5  22548836.246 5  22548836.210 5
 116622116.987 8  90874389.822 6  22192450.816 6  22192450.122 6
 131145726.142 6 102191452.308 2  24956196.599 2  24956198.273 2
 109164855.050 8  85063495.695 6  20773377.515 6  20773379.021 6
 114991340.884 8  89603635.468 5  21882119.719 5  21882121.608 5
 126670196.896 6  98704047.833 3  24104529.604 3  24104532.049 3
 120945474.645 7  94243220.345 5  23015152.522 5  23015154.812 5
 118204757.548 8  92107604.759 6  22493616.402 6  22493614.435 6
 106437199.373 8  82938078.428 7  20254319.076 7  20254318.672 7
 18 01 01 02 30 00.0000000  0 10G07G08G10G15G16G18G20G21G26G27       0.000000000
 125403303.096 7  97716830.348 4  23863449.765 4  23863451.975 4
 118412135.274 7  92269206.007 5  22533076.133 5  22533074.981 5
 116542903.532 8  90812665.070 6  22177376.342 6  22177375.656 6
 131112494.046 6 102165557.187 2  24949872.365 2  24949875.910 2
 109215752.810 8  85103156.271 6  20783062.804 6  20783064.779 6
 114984284.350 8  89598136.881 5  21880776.931 5  21880778.749 5
 126756990.958 6  98771679.564 3  24121045.721 3  24121047.253 3
 121019496.743 7  94300899.914 5  23029238.733 5  23029240.852 5
 118301829.898 8  92183245.543 5  22512088.657 5  22512087.157 5
 106410348.174 8  82917155.417 7  20249209.353 7  20249209.135 7
 18 01 01 02 30 30.0000000  0 10G07G08G10G15G16G18G20G21G26G27       0.000000000
 125385491.339 7  97702951.031 4  23860060.181 4  23860062.390 4
 118329491.313 7  92204808.160 5  22517349.539 5  22517348.463 5
 116464090.632 8  90751252.421 6  22162379.172 6  22162378.599 6
 131079763.291 6 102140052.718 2  24943644.182 2  24943646.542 2
 109267172.657 8  85143223.683 6  20792847.519 6  20792849.515 6
 114977739.926 8  89593037.343 5  21879531.865 5  21879533.238 5
 126844135.425 6  98839584.320 3  24137628.939 3  24137631.757 3
 121093680.809 7  94358705.671 5  23043355.703 5  23043357.242 5
 118399198.368 8  92259117.101 6  22530617.630 6  22530615.298 6
 106383878.665 8  82896529.830 7  20244172.406 7  20244172.033 7
 18 01 01 02 31 00.0000000  0 10G07G08G10G15G16G18G20G21G26G27       0.000000000
 125368247.706 7  97689514.442 4  23856778.618 4  23856781.251 4
 118247026.136 7  92140549.592 5  22501657.077 5  22501655.813 5
 116385680.821 8  90690153.895 6  22147458.419 6  22147457.560 6
 131047536.042 6 102114940.625 2  24937511.325 2  24937514.061 2
 109319114.322 8  85183697.693 6  20802731.790 6  20802733.793 6
 114971708.314 8  89588337.406 5  21878383.606 5  21878385.549 5
 126931627.935 6  98907760.338 3  24154279.101 3  24154280.071 3
 121168025.953 7  94416636.955 5  23057503.148 5  23057505.023 5
 118496860.877 7  92335217.739 6  22549201.850 6  22549200.404 6
 106357791.587 8  82876202.249 7  20239208.069 7  20239208.090 7
 18 01 01 02 31 30.0000000  0 10G07G08G10G15G16G18G20G21G26G27       0.000000000
 125351572.449 7  97676520.710 4  23853605.872 4  23853608.408 4
 118164740.890 7  92076431.220 5  22485998.372 5  22485997.565 5
 116307676.756 8  90629371.512 6  22132614.863 6  22132613.769 6
 131015814.334 6 102090222.367 2  24931475.175 2  24931477.345 2
 109371576.488 8  85224577.284 6  20812715.108 6  20812716.948 6
 114966189.481 8  89584037.036 5  21877333.231 5  21877335.265 5
 127019465.773 6  98976205.393 3  24170993.785 3  24170995.185 3
 121242530.826 7  94474692.701 5  23071680.767 5  23071682.751 5
 118594815.070 8  92411545.703 6  22567841.750 6  22567840.340 6
 106332087.734 8  82856173.283 7  20234316.547 7  20234316.493 7
 18 01 01 02 32 00.0000000  0 10G07G08G10G15G16G18G20G21G26G27       0.000000000
 125335465.720 7  97663970.012 4  23850540.396 4  23850543.103 4
 118082636.640 7  92012453.891 5  22470374.317 5  22470373.722 5
 116230080.936 8  90568907.249 6  22117848.515 6  22117847.946 6
 130984599.613 6 102065899.303 2  24925535.309 2  24925537.130 2
 109424557.704 8  85265861.355 6  20822797.378 6  20822799.020 6
 114961183.559 7  89580136.332 5  21876380.717 5  21876383.000 5
 127107646.579 6  99044917.695 3  24187774.295 3  24187775.989 3
 121317193.976 7  94532871.784 5  23085888.395 5  23085890.375 5
 118693058.777 7  92488099.226 6  22586537.408 6  22586535.249 6
 106306767.857 8  82836443.490 7  20229498.334 7  20229498.296 7
 18 01 01 02 32 30.0000000  0 10G07G08G10G15G16G18G20G21G26G27       0.000000000
 125319928.085 7  97651862.755 4  23847584.247 4  23847586.510 4
 118000714.761 7  91948618.671 5  22454785.601 5  22454784.098 5
 116152895.896 8  90508763.075 6  22103160.352 6  22103159.933 6
 130953893.774 6 102041972.773 2  24919692.284 2  24919694.543 2
 109478056.744 8  85307548.922 6  20832977.774 6  20832979.539 6
 114956690.330 8  89576635.129 5  21875525.551 5  21875527.626 5
 127196167.430 6  99113894.999 3  24204619.126 3  24204620.917 3
 121392013.895 7  94591173.012 5  23100126.346 5  23100128.582 5
 118791589.697 8  92564876.574 6  22605286.751 6  22605285.099 6
 106281832.648 8  82817013.467 7  20224753.464 7  20224753.121 7
 18 01 01 02 33 00.0000000  0 10G07G08G10G15G16G18G20G21G26G27       0.000000000
 125304959.932 7  97640199.259 4  23844735.689 4  23844737.761 4
 117918976.621 7  91884926.635 5  22439231.133 5  22439230.047 5
 116076124.209 8  90448940.993 6  22088551.530 6  22088550.867 6
 130923698.109 6 102018443.659 2  24913946.053 2  24913948.562 2
 109532071.984 8  85349638.710 6  20843256.429 6  20843258.079 6
 114952710.324 8  89573533.839 5  21874768.241 5  21874770.459 5
 127285025.848 6  99183135.302 3  24221528.177 3  24221529.716 3
 121466989.226 7  94649595.341 5  23114393.961 5  23114395.828 5
 118890405.623 8  92641876.008 6  22624090.644 6  22624089.156 6
 106257282.912 8  82797883.807 7  20220081.964 7  20220081.541 7
 18 01 01 02 33 30.0000000  0 10G07G08G10G15G16G18G20G21G26G27       0.000000000
 125290561.832 7  97628979.937 4  23841996.163 4  23841998.072 4
 117837422.887 7  91821378.266 5  22423712.041 5  22423710.988 5
 115999768.351 8  90389442.936 6  22074021.945 6  22074020.665 6
 130894014.461 6 101995313.488 2  24908297.557 2  24908299.787 2
 109586602.518 8  85392130.026 6  20853633.021 6  20853635.166 6
 114949243.500 8  89570832.426 5  21874108.297 5  21874110.490 5
 127374219.358 6  99252636.763 3  24238501.491 3  24238503.181 3
 121542118.756 7  94708137.829 5  23128690.382 5  23128692.735 5
 118989504.321 8  92719095.755 6  22642948.912 6  22642946.987 6
 106233119.381 8  82779055.086 7  20215483.956 7  20215483.491 7
 18 01 01 02 34 00.0000000  0 10G07G08G10G15G16G18G20G21G26G27       0.000000000
 125276733.199 7  97618204.381 4  23839364.398 4  23839366.738 4
 117756055.131 7  91757974.844 5  22408228.221 5  22408227.351 5
 115923830.880 8  90330270.874 6  22059571.387 6  22059570.220 6
 130864844.473 6 101972583.631 2  24902746.726 2  24902749.224 2
 109641646.926 8  85435021.765 6  20864107.667 6  20864109.672 6
 114946290.039 8  89568531.034 5  21873546.773 5  21873548.492 5
 127463745.444 6  99322397.361 3  24255537.340 3  24255539.137 3
 121617400.919 7  94766799.256 5  23143016.056 5  23143018.040 5
 119088883.474 8  92796534.058 6  22661860.450 6  22661858.450 6
 106209342.806 8  82760527.891 7  20210959.425 7  20210958.842 7
 18 01 01 02 34 30.0000000  0 10G07G08G10G15G16G18G20G21G26G27       0.000000000
 125263474.818 7  97607873.149 4  23836841.639 4  23836843.518 4
 117674874.786 7  91694717.437 5  22392779.905 5  22392779.064 5
 115848314.239 8  90271426.769 6  22045200.750 6  22045199.924 6
 130836189.481 6 101950255.132 2  24897293.811 2  24897295.505 2
 109697203.943 7  85478312.943 6  20874679.991 6  20874681.625 6
 114943849.743 8  89566629.520 6  21873082.610 6  21873083.969 6
 127553601.240 6  99392414.891 3  24272635.930 3  24272637.842 3
 121692834.580 7  94825578.719 5  23157370.868 5  23157372.532 5
 119188540.876 8  92874189.183 6  22680824.811 6  22680822.276 6
 106185953.894 8  82742302.767 7  20206508.528 7  20206508.320 7
 18 01 01 02 35 00.0000000  0 10G07G08G10G15G16G18G20G21G26G27       0.000000000
 125250787.208 7  97597986.703 4  23834427.137 4  23834429.589 4
 117593882.731 7  91631606.770 5  22377367.671 5  22377366.704 5
 115773220.979 8  90212912.546 6  22030910.956 6  22030910.510 6
 130808051.442 6 101928329.420 2  24891939.150 2  24891941.673 2
 109753272.064 7  85522002.377 6  20885349.466 6  20885351.501 6
 114941923.001 8  89565128.173 5  21872715.753 5  21872717.407 5
 127643784.386 6  99462687.471 2  24289797.494 2  24289799.032 2
 121768418.046 7  94884474.920 5  23171753.999 5  23171755.572 5
 119288474.262 8  92952059.351 5  22699840.748 5  22699838.789 5
 106162953.369 8  82724380.281 7  20202131.583 7  20202131.303 7
 18 01 01 02 35 30.0000000  0 10G07G08G10G15G16G18G20G21G26G27       0.000000000
 125238670.200 7  97588544.869 4  23832120.938 4  23832123.821 4
 117513080.124 7  91568643.701 5  22361991.326 5  22361990.106 5
 115698553.546 8  90154730.147 6  22016702.357 6  22016701.483 6
 130780431.580 6 101906807.468 2  24886683.147 2  24886685.346 2
 109809850.015 8  85566089.082 6  20896115.801 6  20896117.795 6
 114940509.386 8  89564026.677 5  21872446.624 5  21872448.717 5
 127734292.244 6  99533213.066 3  24307020.566 3  24307022.275 3
 121844150.116 7  94943486.911 5  23186165.121 5  23186166.869 5
 119388681.341 8  93030142.782 6  22718909.746 6  22718907.829 6
 106140342.003 8  82706761.041 7  20197829.077 7  20197828.412 7
 18 01 01 02 36 00.0000000  0 10G07G08G10G15G16G18G20G21G26G27       0.000000000
 125227123.851 7  97579547.689 4  23829924.325 4  23829926.520 4
 117432468.469 7  91505829.455 5  22346651.523 5  22346650.377 5
 115624314.401 8  90096881.472 6  22002575.066 6  22002574.155 6
 130753331.567 6 101885690.568 2  24881525.778 2  24881527.978 2
 109866936.356 8  85610571.958 6  20906979.071 6  20906980.638 6
 114939609.397 8  89563325.402 5  21872275.227 5  21872277.274 5
 127825121.886 6  99603989.409 3  24324305.310 3  24324307.137 3
 121920029.531 7  95002613.721 5  23200604.921 5  23200606.531 5
 119489159.802 8  93108437.690 5  22738030.542 5  22738027.872 5
 106118120.473 8  82689445.573 7  20193600.380 7  20193599.741 7
 18 01 01 02 36 30.0000000  0 10G07G08G10G15G16G18G20G21G26G27       0.000000000
 125216148.486 7  97570995.470 4  23827835.500 4  23827837.737 4
 117352048.925 7  91443164.889 5  22331348.410 5  22331347.414 5
 115550505.998 8  90039368.450 6  21988529.883 6  21988529.299 6
 130726752.553 6 101864979.642 2  24876467.720 2  24876470.349 2
 109924530.035 8  85655450.137 6  20917938.862 6  20917940.612 6
 114939222.726 8  89563024.106 5  21872201.950 5  21872203.712 5
 127916270.925 6  99675014.645 3  24341650.376 3  24341652.017 3
 121996055.072 7  95061854.407 5  23215071.939 5  23215073.386 5
 119589907.394 8  93186942.304 6  22757202.253 6  22757199.906 6
 106096289.534 8  82672434.454 7  20189446.136 7  20189445.719 7
 18 01 01 02 37 00.0000000  0 10G07G08G10G15G16G18G20G21G26G27       0.000000000
 125205744.056 7  97562888.101 4  23825855.412 4  23825858.579 4
 117271822.887 7  91380651.094 5  22316081.798 5  22316080.558 5
 115477130.762 8  89982192.953 6  21974566.741 6  21974565.887 6
 130700696.443 6 101844676.250 2  24871509.438 2  24871513.017 2
 109982629.410 8  85700722.368 6  20928994.971 6  20928996.425 6
 114939349.184 8  89563122.642 5  21872225.619 5  21872227.764 5
 128007736.816 6  99746286.750 3  24359055.371 3  24359057.331 3
 122072225.033 7  95121207.601 5  23229566.887 5  23229568.404 5
 119690921.829 7  93265654.857 5  22776424.234 5  22776422.290 5
 106074849.902 8  82655728.251 7  20185366.227 7  20185365.739 7
 18 01 01 02 37 30.0000000  0 10G07G08G10G15G16G18G20G21G26G27       0.000000000
 125195911.041 7  97555226.011 4  23823984.217 4  23823986.610 4
 117191791.305 7  91318288.840 5  22300852.463 5  22300851.558 5
 115404191.196 8  89925356.940 6  21960686.744 6  21960686.112 6
 130675164.773 6 101824781.452 2  24866651.154 2  24866653.413 2
 110041232.806 8  85746387.340 6  20940146.513 6  20940148.445 6
 114939988.959 8  89563621.176 5  21872347.292 5  21872349.381 5
 128099516.980 6  99817803.787 3  24376520.035 3  24376522.342 3
 122148538.230 7  95180672.420 5  23244088.736 5  23244090.055 5
 119792200.844 8  93344573.576 6  22795696.931 6  22795695.212 6
 106053802.270 8  82639327.501 7  20181360.731 7  20181360.439 7
 18 01 01 02 38 00.0000000  0 10G07G08G10G15G16G18G20G21G26G27       0.000000000
 125186649.303 7  97548009.052 4  23822221.937 4  23822224.211 4
 117111955.722 7  91256079.309 5  22285660.129 5  22285659.331 5
 115331689.613 8  89868862.205 6  21946889.986 6  21946889.485 6
 130650158.787 6 101805296.265 2  24861892.628 2  24861895.622 2
 110100339.331 8  85792444.370 6  20951393.856 6  20951395.980 6
 114941142.126 8  89564519.762 5  21872567.076 5  21872569.012 5
 128191608.494 6  99889563.413 3  24394044.771 3  24394046.947 3
 122224993.309 7  95240247.800 5  23258637.182 5  23258639.282 5
 119893742.118 8  93423696.628 5  22815019.899 5  22815017.691 5
 106033147.314 8  82623232.748 7  20177430.139 7  20177429.770 7
 18 01 01 02 38 30.0000000  0 10G07G08G10G15G16G18G20G21G26G27       0.000000000
 125177958.765 7  97541237.193 4  23820567.830 4  23820571.034 4
 117032317.327 7  91194023.411 5  22270505.246 5  22270504.533 5
 115259628.510 8  89812710.712 6  21933177.465 6  21933177.083 6
 130625679.971 6 101786221.911 2  24857234.503 2  24857236.803 2
 110159947.120 8  85838891.986 6  20962736.954 6  20962738.908 6
 114942808.390 8  89565818.164 5  21872883.958 5  21872886.034 5
 128284008.848 6  99961563.699 2  24411628.076 2  24411629.916 2
 122301588.802 7  95299932.590 5  23273212.928 5  23273214.790 5
 119995543.355 7  93503022.271 5  22834391.916 5  22834389.911 5
 106012885.825 8  82607444.574 7  20173574.608 7  20173574.585 7
 18 01 01 02 39 00.0000000  0 10G07G08G10G15G16G18G20G21G26G27       0.000000000
 125169839.693 7  97534910.635 4  23819023.153 4  23819025.731 4
 116952877.446 7  91132122.208 5  22255388.009 5  22255387.483 5
 115188010.229 8  89756904.281 6  21919549.207 6  21919547.775 6
 130601729.594 6 101767559.276 2  24852676.886 2  24852679.926 2
 110220054.962 8  85885729.257 6  20974175.288 6  20974177.082 6
 114944987.520 8  89567516.208 5  21873298.567 5  21873300.556 5
 128376715.529 6 100033802.694 3  24429269.772 3  24429271.769 3
 122378323.712 7  95359726.019 5  23287814.993 5  23287817.049 5
 120097602.251 7  93582548.682 5  22853812.812 5  22853811.133 5
 105993018.448 8  82591963.490 7  20169794.141 7  20169793.895 7
 18 01 01 02 39 30.0000000  0 10G07G08G10G15G16G18G20G21G26G27       0.000000000
 125162291.929 7  97529029.265 4  23817586.743 4  23817589.453 4
 116873636.983 7  91070376.420 5  22240309.251 5  22240308.500 5
 115116837.161 8  89701444.758 6  21906005.230 6  21906004.236 6
 130578308.989 6 101749309.474 2  24848220.342 2  24848222.183 2
 110280660.701 8  85932954.503 6  20985708.148 6  20985709.914 6
 114947679.467 8  89569613.838 5  21873810.965 5  21873812.804 5
 128469725.986 6 100106278.360 3  24446968.785 3  24446970.935 3
 122455196.670 7  95419627.018 5  23302443.634 5  23302445.503 5
 120199916.485 7  93662274.060 5  22873282.512 5  22873280.558 5
 105973545.855 8  82576790.047 7  20166088.772 7  20166088.064 7
 18 01 01 02 40 00.0000000  0 10G07G08G10G15G16G18G20G21G26G27       0.000000000
 125155315.257 7  97523592.883 4  23816259.440 4  23816261.735 4
 116794597.722 7  91008787.376 5  22225268.850 5  22225267.673 5
 115046111.658 8  89646333.998 6  21892546.353 6  21892545.929 6
 130555419.587 6 101731473.597 2  24843864.369 2  24843866.553 2
 110341763.669 8  85980567.204 6  20997335.686 6  20997337.321 6
 114950884.091 7  89572110.944 5  21874420.850 5  21874423.140 5
 128563037.468 6 100178988.592 3  24464725.509 3  24464727.445 3
 122532206.382 7  95479634.572 5  23317098.058 5  23317099.842 5
 120302483.735 7  93742196.625 5  22892800.505 5  22892798.294 5
 105954468.788 8  82561924.819 7  20162458.494 7  20162458.065 7
 18 01 01 02 40 30.0000000  0 10G07G08G10G15G16G18G20G21G26G27       0.000000000
 125148909.985 7  97518601.765 4  23815040.458 4  23815042.941 4
 116715760.493 8  90947355.799 6  22210266.431 6  22210265.528 6
 114975836.083 8  89591573.830 6  21879173.358 6  21879172.876 6
 130533062.833 6 101714052.773 2  24839609.969 2  24839612.195 2
 110403362.106 8  86028565.971 6  21009057.329 6  21009059.168 6
 114954601.399 8  89575007.565 5  21875128.006 5  21875130.191 5
 128656647.323 6 100251931.372 3  24482538.360 3  24482541.032 3
 122609351.293 7  95539747.479 5  23331778.551 5  23331780.273 5
 120405301.742 7  93822314.526 5  22912366.496 5  22912364.194 5
 105935787.886 8  82547368.277 7  20158903.456 7  20158903.223 7
 18 01 01 02 41 00.0000000  0 10G07G08G10G15G16G18G20G21G26G27       0.000000000
 125143075.998 7  97514055.786 4  23813930.364 4  23813932.717 4
 116637126.797 8  90886082.777 6  22195303.237 6  22195301.864 6
 114906012.815 8  89537166.103 6  21865886.803 6  21865885.919 6
 130511240.063 6 101697047.983 2  24835457.285 2  24835460.044 2
 110465454.378 8  86076949.546 6  21020873.480 6  21020875.038 6
 114958830.878 8  89578303.273 5  21875932.661 5  21875934.844 5
 128750552.838 6 100325104.501 2  24500407.518 2  24500410.286 2
 122686630.431 7  95599964.994 5  23346483.875 5  23346485.891 5
 120508368.142 7  93902626.013 5  22931979.225 5  22931977.324 5
 105917503.872 8  82533120.987 7  20155423.938 7  20155423.830 7
 18 01 01 02 41 30.0000000  0 11G07G08G10G15G16G18G20G21G26G27G30    0.000000000
 125137813.177 7  97509954.881 4  23812928.618 4  23812931.033 4
 116558697.992 8  90824969.442 6  22180379.032 6  22180377.432 6
 114836644.151 8  89483112.619 6  21852686.202 6  21852685.227 6
 130489952.430 6 101680460.194 2  24831407.162 2  24831407.839 2
 110528038.931 8  86125716.732 6  21032782.860 6  21032784.576 6
 114963572.544 8  89581998.089 5  21876834.914 5  21876837.015 5
 128844751.506 6 100398506.034 3  24518333.636 3  24518335.739 3
 122764042.705 7  95660286.247 5  23361214.675 5  23361216.883 5
 120611680.645 7  93983129.253 5  22951639.076 5  22951636.332 5
 105899617.397 8  82519183.482 7  20152020.332 7  20152020.105 7
 130079094.66615 101360334.38812  24753228.819 2  24753229.835 2
 18 01 01 02 42 00.0000000  0 11G07G08G10G15G16G18G20G21G26G27G30    0.000000000
 125133121.211 7  97506298.790 4  23812035.840 4  23812038.674 4
 116480475.158 8  90764016.573 6  22165493.376 6  22165492.016 6
 114767732.372 8  89429415.151 6  21839572.422 6  21839572.010 6
 130469201.395 6 101664290.635 2  24827458.254 2  24827460.577 2
 110591114.568 8  86174866.566 6  21044785.607 6  21044787.250 6
 114968825.974 8  89586091.686 5  21877834.549 5  21877837.017 5
 128939240.708 6 100472134.012 3  24536314.607 3  24536316.062 3
 122841586.356 7  95720709.854 5  23375970.823 5  23375973.145 5
 120715236.888 7  94063822.418 5  22971345.239 5  22971342.771 5
 105882129.149 8  82505556.268 7  20148692.733 7  20148692.258 7
 130033939.011 5 101325148.145 1  24744636.230 1  24744634.871 1
 18 01 01 02 42 30.0000000  0 11G07G08G10G15G16G18G20G21G26G27G30    0.000000000
 125129000.183 7  97503087.599 4  23811251.996 4  23811253.812 4
 116402459.377 8  90703225.087 6  22150647.133 6  22150646.066 6
 114699279.826 8  89376075.524 6  21826546.563 6  21826545.959 6
 130448988.127 6 101648539.985 2  24823611.706 2  24823614.048 2
 110654678.910 8  86224397.226 6  21056881.368 6  21056883.135 6
 114974591.023 8  89590583.940 5  21878931.792 5  21878933.659 5
 129034017.859 6 100545986.301 2  24554350.530 2  24554352.079 2
 122919260.009 7  95781234.773 5  23390751.687 5  23390753.963 5
 120819034.525 7  94144703.703 5  22991097.044 5  22991094.777 5
 105865039.808 8  82492239.905 7  20145440.934 7  20145440.154 7
 129989293.944 5 101290359.789 1  24736140.388 1  24736139.392 1
 18 01 01 02 43 00.0000000  0 11G07G08G10G15G16G18G20G21G26G27G30    0.000000000
 125125449.964 7  97500321.182 4  23810576.535 4  23810578.457 4
 116324652.453 8  90642596.300 6  22135840.915 6  22135840.137 6
 114631288.787 8  89323095.496 6  21813608.228 6  21813607.217 6
 130429313.483 6 101633209.129 2  24819867.738 2  24819870.503 2
 110718730.769 8  86274307.763 6  21069070.054 6  21069071.902 6
 114980868.067 8  89595475.148 5  21880126.515 5  21880128.535 5
 129129080.064 6 100620060.780 2  24572440.081 2  24572441.521 2
 122997062.827 7  95841860.351 5  23405557.140 5  23405558.966 5
 120923071.290 7  94225771.312 5  23010894.156 5  23010892.447 5
 105848349.997 8  82479234.860 7  20142264.812 7  20142264.093 7
 129945160.956 5 101255970.412 1  24727742.028 1  24727742.512 1
 18 01 01 02 43 30.0000000  0 11G07G08G10G15G16G18G20G21G26G27G30    0.000000000
 125122470.207 7  97497999.286 4  23810008.943 4  23810011.301 4
 116247055.438 8  90582131.100 6  22121074.777 6  22121073.663 6
 114563761.504 8  89270476.855 6  21800758.170 6  21800757.684 6
 130410178.984 6 101618299.115 2  24816226.576 2  24816229.192 2
 110783268.634 8  86324597.011 6  21081351.491 6  21081353.040 6
 114987656.051 8  89600764.499 5  21881418.255 5  21881419.904 5
 129224425.170 6 100694355.668 2  24590583.574 2  24590585.289 2
 123074993.907 7  95902585.850 5  23420387.191 5  23420388.612 5
 121027344.783 7  94307023.367 5  23030737.223 5  23030734.944 5
 105832060.392 8  82466541.668 7  20139164.846 7  20139164.700 7
 129901541.304 5 101221981.117 1  24719441.301 1  24719441.171 1
 18 01 01 02 44 00.0000000  0 11G07G08G10G15G16G18G20G21G26G27G30    0.000000000
 125120060.732 7  97496121.787 4  23809550.566 4  23809553.320 4
 116169669.659 8  90521830.507 6  22106348.628 6  22106347.546 6
 114496700.260 8  89218221.366 6  21787996.754 6  21787996.314 6
 130391585.782 6 101603810.934 2  24812688.252 2  24812690.418 2
 110848290.893 8  86375263.694 6  21093724.855 6  21093726.324 6
 114994954.671 7  89606451.744 5  21882807.320 5  21882808.906 5
 129320050.203 6 100768868.664 2  24608780.359 2  24608782.008 2
 123153050.763 7  95963409.351 5  23435240.754 5  23435242.933 5
 121131852.703 7  94388458.110 5  23050624.071 5  23050622.040 5
 105816171.680 8  82454160.855 7  20136141.126 7  20136141.053 7
 129858436.538 5 101188393.035 1  24711238.812 1  24711238.843 1
 18 01 01 02 44 30.0000000  0 11G07G08G10G15G16G18G20G21G26G27G30    0.000000000
 125118221.236 7  97494688.397 4  23809200.442 4  23809203.248 4
 116092496.395 8  90461695.514 6  22091663.261 6  22091662.184 6
 114430107.346 8  89166330.797 6  21775324.905 6  21775324.061 6
 130373535.192 6 101589745.510 2  24809253.098 2  24809256.147 2
 110913796.194 8  86426306.778 6  21106189.977 6  21106191.860 6
 115002763.849 8  89612536.834 5  21884293.115 5  21884294.924 5
 129415952.570 6 100843597.799 2  24627029.645 2  24627032.044 2
 123231232.918 7  96024330.505 5  23450118.562 5  23450120.376 5
 121236592.688 7  94470073.676 5  23070555.367 5  23070553.373 5
 105800684.487 8  82442092.909 7  20133194.014 7  20133193.844 7
 129815848.043 5 101155207.195 1  24703134.434 1  24703133.837 1
 18 01 01 02 45 00.0000000  0 11G07G08G10G15G16G18G20G21G26G27G30    0.000000000
 125116951.554 7  97493699.048 4  23808958.881 4  23808960.669 4
 116015537.115 8  90401727.244 6  22077018.482 6  22077017.293 6
 114363984.892 8  89114806.833 6  21762742.233 6  21762741.588 6
 130356028.241 6 101576103.739 2  24805921.274 2  24805923.837 2
 110979782.380 8  86477724.576 6  21118746.651 6  21118748.642 6
 115011083.201 8  89619019.445 5  21885876.002 5  21885877.864 5
 129512129.696 6 100918541.002 2  24645331.531 2  24645333.659 2
 123309539.308 7  96085348.471 5  23465019.542 5  23465021.480 5
 121341562.376 7  94551868.233 5  23090530.825 5  23090528.418 5
 105785599.443 8  82430338.335 7  20130323.549 7  20130323.334 7
 129773777.144 5 101122424.680 2  24695128.714 2  24695128.460 2
 18 01 01 02 45 30.0000000  0 11G07G08G10G15G16G18G20G21G26G27G30    0.000000000
 125116251.480 7  97493153.508 4  23808826.396 4  23808828.271 4
 115938793.078 8  90341926.702 6  22062414.118 6  22062413.244 6
 114298335.204 8  89063651.241 6  21750249.056 6  21750248.473 6
 130339065.955 6 101562886.318 2  24802693.483 2  24802696.283 2
 111046247.724 8  86529515.750 6  21131394.573 6  21131396.397 6
 115019912.220 8  89625899.209 5  21887556.152 5  21887557.768 5
 129608579.165 6 100993696.396 2  24663685.087 2  24663687.771 2
 123387968.407 7  96146462.051 5  23479944.191 5  23479946.122 5
 121446759.434 7  94633839.965 5  23110548.902 5  23110546.860 5
 105770917.224 8  82418897.651 7  20127529.769 7  20127529.367 7
 129732225.413 5 101090046.719 2  24687222.232 2  24687222.187 2
 18 01 01 02 46 00.0000000  0 11G07G08G10G15G16G18G20G21G26G27G30    0.000000000
 125116120.597 7  97493051.525 4  23808800.053 4  23808802.706 4
 115862265.692 8  90282294.984 6  22047851.948 6  22047851.027 6
 114233160.418 8  89012865.712 6  21737846.765 6  21737846.202 6
 130322649.426 6 101550094.255 3  24799569.455 3  24799572.434 3
 111113190.897 8  86581679.258 6  21144133.550 6  21144135.480 6
 115029250.725 8  89633175.977 5  21889333.067 5  21889334.996 5
 129705297.709 6 101069061.521 2  24682090.254 2  24682092.463 2
 123466518.536 7  96207669.940 5  23494891.747 5  23494893.629 5
 121552181.518 7  94715987.035 5  23130609.956 5  23130607.834 5
 105756638.427 8  82407771.320 7  20124812.570 7  20124812.212 7
 129691193.857 5 101058074.095 2  24679414.095 2  24679413.871 2
 18 01 01 02 46 30.0000000  0 11G07G08G10G15G16G18G20G21G26G27G30    0.000000000
 125116558.459 7  97493392.721 4  23808884.343 4  23808886.394 4
 115785956.169 8  90222833.038 6  22033330.918 6  22033329.749 6
 114168462.714 8  88962451.942 6  21725535.431 6  21725534.864 6
 130306779.691 6 101537728.269 2  24796549.782 2  24796552.657 2
 111180610.198 8  86634213.763 6  21156963.073 6  21156964.805 6
 115039098.312 8  89640849.419 5  21891207.013 5  21891208.811 5
 129802283.001 6 101144634.465 2  24700546.143 2  24700548.368 2
 123545189.156 7  96268971.720 5  23509862.266 5  23509864.267 5
 121657826.248 7  94798307.606 5  23150713.610 5  23150711.245 5
 105742763.705 8  82396959.850 7  20122172.211 7  20122171.857 7
 129650683.998 5 101026507.957 2  24671705.505 2  24671704.006 2
 18 01 01 02 47 00.0000000  0 11G07G08G10G15G16G18G20G21G26G27G30    0.000000000
 125117564.952 7  97494176.989 4  23809076.435 4  23809077.974 4
 115709865.504 8  90163541.609 6  22018851.097 6  22018849.722 6
 114104244.296 8  88912411.634 6  21713315.234 6  21713314.283 6
 130291458.087 6 101525789.381 3  24793634.570 3  24793636.985 3
 111248503.459 8  86687117.608 6  21169882.441 6  21169884.395 6
 115049454.507 8  89648919.204 5  21893177.496 5  21893179.611 5
 129899532.476 6 101220413.278 2  24719052.244 2  24719054.391 2
 123623978.687 7  96330366.158 5  23524855.728 5  23524857.063 5
 121763691.259 7  94880799.824 5  23170859.057 5  23170856.950 5
 105729293.684 8  82386463.735 7  20119608.647 7  20119608.426 7
 129610697.015 5 100995349.339 2  24664096.342 2  24664094.222 2
 18 01 01 02 47 30.0000000  0 11G07G08G10G15G16G18G20G21G26G27G30    0.000000000
 125119139.532 7  97495403.929 4  23809375.457 4  23809377.789 4
 115633995.484 8  90104422.134 6  22004413.319 6  22004412.218 6
 114040507.347 8  88862746.501 6  21701186.525 6  21701185.952 6
 130276685.112 7 101514277.951 3  24790822.671 3  24790825.992 3
 111316869.404 8  86740389.766 6  21182892.202 6  21182894.382 6
 115060318.920 8  89657384.988 5  21895245.040 5  21895247.210 5
 129997043.662 5 101296395.983 2  24737607.836 2  24737609.828 2
 123702885.856 7  96391852.254 5  23539871.007 5  23539872.336 5
 121869774.285 7  94963461.891 5  23191046.255 5  23191044.146 5
 105716228.981 8  82376283.444 7  20117122.452 7  20117122.356 7
 129571234.368 5 100964599.158 1  24656586.762 1  24656587.364 1
 18 01 01 02 48 00.0000000  0 11G07G08G10G15G16G18G20G21G26G27G30    0.000000000
 125121281.814 7  97497073.222 4  23809783.631 4  23809785.553 4
 115558347.041 8  90045475.281 6  21990017.614 6  21990017.054 6
 113977253.976 8  88813458.173 6  21689149.391 6  21689148.647 6
 130262462.004 6 101503195.015 3  24788116.660 3  24788118.119 3
 111385706.314 8  86794028.906 6  21195991.502 6  21195993.324 6
 115071691.283 8  89666246.581 5  21897409.457 5  21897411.350 5
 130094813.688 5 101372580.428 1  24756212.992 1  24756215.194 1
 123781909.714 7  96453429.282 5  23554908.837 5  23554910.593 5
 121976072.801 7  95046291.918 5  23211273.935 5  23211272.027 5
 105703570.198 8  82366419.458 7  20114713.831 7  20114713.617 7
 129532297.042 6 100934258.475 2  24649177.091 2  24649175.855 2
 18 01 01 02 48 30.0000000  0 11G07G08G10G15G16G18G20G21G26G27G30    0.000000000
 125123991.382 7  97499184.606 4  23810298.646 4  23810300.690 4
 115482921.693 8  89986702.304 6  21975664.788 6  21975663.845 6
 113914486.305 8  88764548.319 6  21677205.290 6  21677204.584 6
 130248789.909 6 101492541.463 2  24785514.667 2  24785516.925 2
 111455012.224 8  86848033.518 6  21209179.972 6  21209181.692 6
 115083570.879 8  89675503.408 5  21899670.377 5  21899671.837 5
 130192840.081 5 101448964.676 1  24774866.665 1  24774866.985 1
 123861048.610 7  96515095.940 5  23569968.314 5  23569970.088 5
 122082584.590 7  95129288.101 5  23231542.579 5  23231540.611 5
 105691317.990 8  82356872.279 7  20112382.572 7  20112382.106 7
 129493886.588 6 100904328.214 2  24641867.602 2  24641868.030 2
 18 01 01 02 49 00.0000000  0 11G07G08G10G15G16G18G20G21G26G27G30    0.000000000
 125127267.843 7  97501737.650 4  23810922.174 4  23810924.693 4
 115407720.666 8  89928104.101 6  21961354.907 6  21961353.437 6
 113852206.458 8  88716018.587 6  21665353.697 6  21665353.091 6
 130235669.541 7 101482317.811 3  24783018.062 3  24783020.675 3
 111524785.398 8  86902402.207 6  21222457.333 6  21222459.356 6
 115095957.430 8  89685155.267 5  21902027.172 5  21902029.024 5
 130291120.049 5 101525546.418 1  24793568.815 1  24793570.243 1
 123940301.584 7  96576851.489 5  23585049.491 5  23585051.591 5
 122189307.150 7  95212448.546 5  23251850.990 5  23251849.054 5
 105679472.914 8  82347642.347 7  20110128.633 7  20110128.065 7
 129456004.061 6 100874809.387 2  24634658.940 2  24634659.114 2
 18 01 01 02 49 30.0000000  0 11G07G08G10G15G16G18G20G21G26G27G30    0.000000000
 125131110.687 7  97504732.104 4  23811653.516 4  23811655.608 4
 115332745.411 8  89869681.829 6  21947087.122 6  21947086.278 6
 113790416.507 8  88667870.579 6  21653595.310 6  21653594.796 6
 130223101.892 6 101472524.854 2  24780626.790 2  24780628.239 2
 111595023.999 8  86957133.584 6  21235823.402 6  21235825.038 6
 115108850.514 8  89695201.847 5  21904480.528 5  21904482.503 5
 130389651.075 5 101602323.863 1  24812318.695 1  24812319.964 1
 124019667.272 7  96638694.881 5  23600152.235 5  23600154.175 5
 122296238.219 7  95295771.446 5  23272199.484 5  23272197.508 5
 105668035.578 8  82338730.144 7  20107952.089 7  20107951.311 7
 129418650.741 6 100845702.852 2  24627549.766 2  24627550.298 2
 18 01 01 02 50 00.0000000  0 11G07G08G10G15G16G18G20G21G26G27G30    0.000000000
 125135519.558 7  97508167.574 4  23812493.037 4  23812494.927 4
 115257997.656 8  89811436.847 6  21932863.141 6  21932862.211 6
 113729118.552 8  88620105.958 6  21641930.707 6  21641930.037 6
 130211088.133 6 101463163.454 3  24778340.646 3  24778342.821 3
 111665726.405 8  87012226.354 6  21249277.561 6  21249279.646 6
 115122249.463 8  89705642.596 5  21907030.086 5  21907032.176 5
 130488430.450 5 101679294.781 1  24831115.863 1  24831117.555 1
 124099144.891 7  96700625.488 5  23615276.095 5  23615278.256 5
 122403375.377 7  95379254.943 5  23292586.760 5  23292585.187 5
 105657006.579 8  82330136.129 7  20105853.315 7  20105852.665 7
 129381827.732 6 100817009.617 2  24620542.989 2  24620543.014 2
 18 01 01 02 50 30.0000000  0 11G07G08G10G15G16G18G20G21G26G27G30    0.000000000
 125140493.598 7  97512043.444 4  23813438.481 4  23813441.123 4
 115183478.541 8  89753370.006 6  21918682.589 6  21918681.626 6
 113668314.656 8  88572726.308 6  21630360.098 6  21630359.602 6
 130199628.875 6 101454234.164 3  24776160.234 3  24776162.005 3
 111736890.877 8  87067679.196 6  21262819.785 6  21262821.367 6
 115136152.970 8  89716476.510 5  21909675.748 5  21909678.203 5
 130587455.942 5 101756457.440 1  24849959.821 1  24849962.400 1
 124178733.151 7  96762642.309 4  23630421.529 4  23630423.291 4
 122510716.207 7  95462897.161 5  23313013.047 5  23313011.285 5
 105646386.510 8  82321860.761 7  20103832.379 7  20103831.826 7
 129345536.227 6 100788730.528 3  24613637.744 3  24613637.448 3
 18 01 01 02 51 00.0000000  0 11G07G08G10G15G16G18G20G21G26G27G30    0.000000000
 125146032.356 7  97516359.367 4  23814492.876 4  23814495.108 4
 115109189.091 8  89695482.135 6  21904545.737 6  21904544.726 6
 113608006.827 8  88525733.220 6  21618883.951 6  21618883.404 6
 130188724.903 6 101445737.585 3  24774084.914 3  24774086.283 3
 111808515.109 8  87123490.275 6  21276449.407 6  21276451.175 6
 115150561.570 8  89727703.983 5  21912417.653 5  21912419.487 5
 130686724.145 5 101833809.293 1  24868849.797 1  24868851.408 1
 124258430.471 7  96824744.097 5  23645587.623 5  23645589.535 5
 122618258.420 7  95546696.271 5  23333477.906 5  23333475.851 5
 105636175.975 8  82313904.494 7  20101889.293 7  20101888.883 7
 129309777.348 6 100760866.466 2  24606833.039 2  24606832.588 2
 18 01 01 02 51 30.0000000  0 11G07G08G10G15G16G18G20G21G26G27G30    0.000000000
 125152135.236 7  97521114.877 4  23815653.812 4  23815656.248 4
 115035130.910 8  89637774.469 6  21890453.638 6  21890451.898 6
 113548197.157 8  88479128.294 6  21607502.737 6  21607501.626 6
 130178377.272 6 101437674.532 3  24772115.629 3  24772117.965 3
 111880597.194 8  87179658.139 6  21290166.212 6  21290167.712 6
 115165474.527 8  89739324.484 6  21915255.649 6  21915257.411 6
 130786232.835 5 101911348.569 1  24887785.621 1  24887786.714 1
 124338235.799 7  96886930.058 5  23660773.665 5  23660775.759 5
 122725999.589 7  95630650.419 5  23353980.264 5  23353978.445 5
 105626375.534 8  82306267.782 7  20100024.479 7  20100023.850 7
 129274552.293 6 100733418.321 3  24600129.620 3  24600129.437 3
 18 01 01 02 52 00.0000000  0 11G07G08G10G15G16G18G20G21G26G27G30    0.000000000
 125158801.720 7  97526309.529 4  23816922.845 4  23816925.461 4
 114961305.358 8  89580248.052 6  21876404.627 6  21876403.437 6
 113488887.614 8  88432913.081 6  21596216.474 6  21596215.418 6
 130168586.571 7 101430045.391 3  24770252.554 3  24770254.903 3
 111953136.440 8  87236182.207 6  21303969.727 6  21303971.818 6
 115180890.737 8  89751337.102 5  21918189.525 5  21918191.431 5
 130885979.590 5 101989073.342 1  24906766.894 1  24906768.156 1
 124418147.875 7  96949199.217 5  23675980.383 5  23675982.500 5
 122833937.301 7  95714757.720 5  23374520.171 5  23374518.962 5
 105616985.737 8  82298951.066 7  20098237.650 7  20098236.915 7
 129239862.047 6 100706386.930 2  24593528.401 2  24593528.147 2
 18 01 01 02 52 30.0000000  0 11G07G08G10G15G16G18G20G21G26G27G30    0.000000000
 125166031.197 7  97531942.871 4  23818299.389 4  23818301.051 4
 114887713.714 8  89522903.935 6  21862400.404 6  21862399.596 6
 113430080.203 8  88387089.143 6  21585025.697 6  21585024.968 6
 130159353.764 6 101422851.011 3  24768496.655 3  24768497.468 3
 112026130.403 8  87293060.624 6  21317860.129 6  21317862.210 6
 115196809.818 8  89763741.582 5  21921218.656 5  21921220.859 5
 130985961.620 5 102066981.321 1  24925792.530 1  24925793.764 1
 124498165.765 7  97011550.796 4  23691207.872 4  23691209.296 4
 122942069.202 7  95799016.345 5  23395096.566 5  23395095.064 5
 105608007.192 8  82291954.790 7  20096528.909 7  20096528.480 7
 129205707.743 6 100679773.155 2  24587028.960 2  24587028.940 2
 18 01 01 02 53 00.0000000  0 11G07G08G10G15G16G18G20G21G26G27G30    0.000000000
 125173822.748 7  97538014.235 4  23819781.079 4  23819783.309 4
 114814357.219 8  89465743.030 6  21848441.246 6  21848440.260 6
 113371776.913 8  88341658.024 6  21573930.685 6  21573930.185 6
 130150679.370 6 101416091.727 3  24766844.968 3  24766846.845 3
 112099576.778 8  87350291.570 6  21331836.713 6  21331838.342 6
 115213231.538 8  89776537.737 5  21924343.368 5  21924345.566 5
 131086176.366 5 102145070.727 1  24944862.632 1  24944864.365 1
 124578288.283 7  97073983.925 5  23706454.688 5  23706455.854 5
 123050392.937 7  95883424.428 5  23415710.357 5  23415708.522 5
 105599440.418 8  82285279.395 7  20094898.528 7  20094898.553 7
 129172090.398 6 100653577.893 3  24580632.568 3  24580630.730 3
 18 01 01 02 53 30.0000000  0 11G07G08G10G15G16G18G20G21G26G27G30    0.000000000
 125182176.232 7  97544523.449 4  23821371.171 4  23821373.145 4
 114741237.335 8  89408766.508 6  21834527.037 6  21834525.822 6
 113313979.721 8  88296621.261 6  21562932.170 6  21562931.586 6
 130142564.233 6 101409768.226 3  24765301.261 3  24765302.230 3
 112173473.928 8  87407873.766 6  21345899.063 6  21345900.315 6
 115230155.099 8  89789724.952 5  21927563.974 5  21927566.064 5
 131186621.198 5 102223339.390 1  24963976.569 1  24963978.872 1
 124658514.045 7  97136497.483 4  23721720.534 4  23721722.882 4
 123158906.041 7  95967980.106 5  23436359.898 5  23436357.551 5
 105591286.024 8  82278925.317 7  20093346.759 7  20093346.750 7
 129139011.070 6 100627801.842 3  24574337.807 3  24574336.192 3
 18 01 01 02 54 00.0000000  0 10G07G08G10G15G16G18G21G26G27G30       0.000000000
 125191090.631 7  97551469.719 4  23823067.391 4  23823069.764 4
 114668355.633 8  89351975.600 6  21820658.103 6  21820657.189 6
 113256690.530 8  88251980.367 6  21552030.350 6  21552029.648 6
 130135009.535 7 101403881.487 3  24763863.361 3  24763865.304 3
 112247819.468 8  87465805.345 6  21360046.123 6  21360047.960 6
 115247579.586 8  89803302.488 5  21930879.700 5  21930881.495 5
 124738841.971 7  97199090.677 5  23737006.409 5  23737008.959 5
 123267606.173 7  96052681.493 5  23457045.396 5  23457042.532 5
 105583544.516 8  82272892.979 7  20091873.726 7  20091873.439 7
 129106470.779 6 100602445.776 3  24568145.329 3  24568144.758 3
 18 01 01 02 54 30.0000000  0 10G07G08G10G15G16G18G21G26G27G30       0.000000000
 125200565.163 7  97558852.445 4  23824870.895 4  23824872.405 4
 114595713.180 8  89295371.086 6  21806834.457 6  21806833.410 6
 113199911.294 8  88207736.816 6  21541225.635 6  21541224.930 6
 130128015.383 7 101398431.480 3  24762532.244 3  24762534.769 3
 112322612.295 8  87524085.460 6  21374278.756 6  21374280.582 6
 115265504.631 8  89817270.053 5  21934290.765 5  21934292.538 5
 124819270.860 7  97261762.530 5  23752312.196 5  23752313.974 5
 123376490.884 7  96137526.713 5  23477765.294 5  23477762.667 5
 105576216.424 8  82267182.785 7  20090479.483 7  20090479.215 7
 129074470.602 6 100577510.526 3  24562055.690 3  24562054.842 3
 18 01 01 02 55 00.0000000  0 10G07G08G10G15G16G18G21G26G27G30       0.000000000
 125210599.401 7  97566671.354 4  23826779.218 4  23826782.408 4
 114523311.598 8  89238954.289 6  21793057.317 6  21793056.024 6
 113143643.941 8  88163892.153 6  21530518.751 6  21530517.638 6
 130121582.434 6 101393418.753 3  24761307.333 3  24761310.595 3
 112397850.512 8  87582712.645 6  21388596.234 6  21388597.899 6
 115283929.353 8  89831626.988 5  21937796.937 5  21937798.739 5
 124899799.825 7  97324512.345 4  23767636.688 4  23767637.959 4
 123485557.859 7  96222513.954 5  23498520.013 5  23498517.653 5
 105569302.360 8  82261795.197 7  20089163.780 7  20089163.014 7
 129043011.385 6 100552996.839 3  24556069.941 3  24556068.098 3
 18 01 01 02 55 30.0000000  0 10G07G08G10G15G16G18G21G26G27G30       0.000000000
 125221192.506 7  97574925.719 4  23828795.245 4  23828797.692 4
 114451152.155 8  89182726.152 6  21779325.156 6  21779324.283 6
 113087890.356 8  88120447.815 6  21519908.762 6  21519908.314 6
 130115711.536 6 101388844.046 3  24760191.028 3  24760193.143 3
 112473531.868 8  87641685.133 6  21402998.052 6  21402999.538 6
 115302853.153 7  89846372.786 5  21941397.855 5  21941400.378 5
 124980427.802 7  97387339.325 4  23782979.626 4  23782981.367 4
 123594804.665 7  96307641.345 5  23519308.322 5  23519306.666 5
 105562802.778 8  82256730.582 7  20087926.768 7  20087926.147 7
 129012094.164 6 100528905.490 3  24550186.180 3  24550184.875 3
 18 01 01 02 56 00.0000000  0 10G07G08G10G15G16G18G21G26G27G30       0.000000000
 125232343.440 7  97583614.741 4  23830917.503 4  23830919.708 4
 114379236.188 8  89126687.742 6  21765639.934 6  21765639.397 6
 113032652.418 8  88077405.287 6  21509397.346 6  21509396.899 6
 130110403.503 7 101384707.985 3  24759181.197 3  24759182.758 3
 112549654.201 8  87701001.227 6  21417483.690 6  21417485.414 6
 115322275.406 8  89861507.018 5  21945093.677 5  21945096.513 5
 125061153.584 7  97450242.533 4  23798340.973 4  23798342.985 4
 123704228.862 7  96392906.952 5  23540130.992 5  23540128.898 5
 105556718.244 8  82251989.385 7  20086768.761 7  20086768.216 7
 128981719.829 6 100505237.200 3  24544405.472 3  24544404.561 3
 18 01 01 02 56 30.0000000  0 10G07G08G10G15G16G18G21G26G27G30       0.000000000
 125244051.646 7  97592738.028 4  23833145.659 4  23833147.637 4
 114307565.408 8  89070840.380 6  21752002.031 6  21752000.937 6
 112977931.976 8  88034765.999 6  21498984.310 6  21498983.949 6
 130105658.597 7 101381010.640 3  24758277.643 3  24758280.754 3
 112626214.917 8  87760658.919 6  21432052.638 6  21432054.458 6
 115342195.182 8  89877028.939 5  21948884.321 5  21948886.435 5
 125141975.875 7  97513220.942 4  23813720.900 4  23813722.557 4
 123813828.149 7  96478308.982 5  23560987.051 5  23560984.934 5
 105551049.272 8  82247572.013 7  20085689.942 7  20085689.582 7
 128951889.298 6 100481992.648 3  24538728.841 3  24538727.824 3
 18 01 01 02 57 00.0000000  0 10G07G08G10G15G16G18G21G26G27G30       0.000000000
 125256315.982 7  97602294.641 4  23835479.104 4  23835481.695 4
 114236140.777 8  89015184.832 6  21738410.306 6  21738409.201 6
 112923730.862 8  87992531.385 6  21488670.195 6  21488669.404 6
 130101477.267 7 101377752.462 3  24757482.445 3  24757484.630 3
 112703213.726 8  87820657.993 6  21446704.786 6  21446706.610 6
 115362611.842 8  89892938.027 5  21952769.656 5  21952771.882 5
 125222893.345 7  97576273.486 5  23829119.540 5  23829120.888 5
 123923600.049 7  96563845.525 5  23581876.088 5  23581874.348 5
 105545796.389 8  82243478.861 7  20084690.458 7  20084690.271 7
 128922603.473 6 100459172.471 3  24533156.309 3  24533155.029 3
 18 01 01 02 57 30.0000000  0 10G07G08G10G15G16G18G21G26G27G30       0.000000000
 125269135.646 7  97612283.980 4  23837919.058 4  23837920.623 4
 114164964.017 8  88959722.433 6  21724865.985 6  21724864.748 6
 112870050.917 8  87950702.865 6  21478455.234 6  21478454.476 6
 130097860.378 7 101374934.109 3  24756794.205 3  24756795.861 3
 112780647.855 8  87880996.276 6  21461439.789 6  21461441.556 6
 115383524.482 8  89909233.598 5  21956749.570 5  21956751.293 5
 125303905.008 7  97639399.460 4  23844535.074 4  23844537.343 4
 124033542.226 7  96649514.744 5  23602797.093 5  23602795.370 5
 105540960.070 8  82239710.301 7  20083770.332 7  20083770.174 7
 128893863.261 6 100436777.464 3  24527687.524 3  24527686.676 3
 18 01 01 02 58 00.0000000  0 10G07G08G10G15G16G18G21G26G27G30       0.000000000
 125282510.073 7  97622705.619 4  23840464.029 4  23840466.387 4
 114094036.267 8  88904454.050 6  21711368.607 6  21711367.650 6
 112816893.932 8  87909281.847 6  21468339.967 6  21468339.234 6
 130094808.188 7 101372555.758 3  24756212.871 3  24756215.656 3
 112858514.858 8  87941671.852 6  21476257.377 6  21476259.673 6
 115404932.190 8  89925914.934 5  21960823.097 5  21960825.000 5
 125385009.634 7  97702597.869 4  23859968.933 4  23859970.521 4
 124143652.237 7  96735314.749 5  23623750.289 5  23623749.040 5
 105536540.874 8  82236266.774 7  20082929.399 7  20082929.137 7
 128865669.377 6 100414808.264 3  24522322.091 3  24522321.143 3
 18 01 01 02 58 30.0000000  0 10G07G08G10G15G16G18G21G26G27G30       0.000000000
 125296437.995 7  97633558.543 4  23843114.341 4  23843116.674 4
 114023358.952 8  88849380.835 6  21697919.227 6  21697918.222 6
 112764261.718 8  87868269.751 6  21458324.660 6  21458323.746 6
 130092321.598 7 101370618.138 3  24755740.064 3  24755742.223 3
 112936812.933 8  88002683.328 6  21491157.468 6  21491159.016 6
 115426834.016 8  89942981.302 5  21964990.824 5  21964992.943 5
 125466206.244 7  97765867.953 4  23875420.048 4  23875421.257 4
 124253927.607 7  96821243.608 5  23644735.788 5  23644733.325 5
 105532539.243 8  82233148.616 7  20082167.855 7  20082167.412 7
 128838022.712 6 100393265.405 3  24517061.232 3  24517060.457 3
 18 01 01 02 59 00.0000000  0 10G07G08G10G15G16G18G21G26G27G30       0.000000000
 125310918.711 7  97644842.218 4  23845869.786 4  23845872.280 4
 113952933.489 8  88794503.862 6  21684517.586 6  21684516.634 6
 112712156.029 8  87827667.937 6  21448409.002 6  21448408.348 6
 130090400.839 7 101369121.468 3  24755374.272 3  24755376.142 3
 113015540.212 8  88064029.258 6  21506138.986 6  21506140.452 6
 115449229.553 8  89960432.377 5  21969252.432 5  21969254.351 5
 125547493.919 7  97829208.994 4  23890888.625 4  23890890.166 4
 124364366.059 7  96907299.537 5  23665751.672 5  23665749.453 5
 105528955.650 8  82230356.221 7  20081485.776 7  20081485.711 7
 128810924.081 6 100372149.568 3  24511904.556 3  24511903.688 3
 18 01 01 02 59 30.0000000  0 10G07G08G10G15G16G18G21G26G27G30       0.000000000
 125325951.312 7  97656555.899 4  23848730.605 4  23848733.008 4
 113882761.638 8  88739824.505 6  21671164.592 6  21671163.318 6
 112660578.601 8  87787477.756 6  21438594.081 6  21438593.433 6
 130089046.369 7 101368066.033 3  24755116.917 3  24755119.545 3
 113094695.085 8  88125708.375 6  21521201.401 6  21521202.841 6
 115472117.679 7  89978267.282 5  21973607.869 5  21973609.906 5
 125628871.385 7  97892619.986 4  23906374.283 4  23906375.706 4
 124474965.123 7  96993480.628 4  23686797.645 4  23686795.535 4
 105525790.657 8  82227889.985 7  20080883.506 7  20080883.466 7
 128784374.297 6 100351461.450 3  24506852.236 3  24506852.292 3
 18 01 01 03 00 00.0000000  0 10G07G08G10G15G16G18G21G26G27G30       0.000000000
 125341534.560 7  97668698.729 4  23851696.414 4  23851698.254 4
 113812844.596 8  88685343.700 6  21657859.754 6  21657858.414 6
 112609531.208 8  87747700.581 6  21428879.933 6  21428879.451 6
 130088258.408 7 101367452.040 3  24754966.523 3  24754968.473 3
 113174275.058 8  88187718.726 6  21536344.528 6  21536347.111 6
 115495498.434 8  89996486.050 5  21978057.003 5  21978059.047 5
 125710337.413 7  97956100.027 4  23921876.678 4  23921878.359 4
 124585722.417 7  97079784.988 4  23707873.994 4  23707872.654 4
 105523044.685 8  82225750.273 7  20080361.087 7  20080360.895 7
 128758374.039 7 100331201.498 3  24501903.983 3  24501904.467 3
 18 01 01 03 00 30.0000000  0 10G07G08G10G15G16G18G21G26G27G30       0.000000000
 125357667.619 7  97681269.909 4  23854766.182 4  23854768.291 4
 113743183.748 8  88631062.531 6  21644603.566 6  21644602.676 6
 112559015.509 8  87708337.712 6  21419267.129 6  21419266.655 6
 130088037.308 7 101367279.756 3  24754924.203 3  24754927.461 3
 113254278.174 8  88250058.814 6  21551568.436 6  21551570.867 6
 115519370.029 7  90015087.312 5  21982599.358 5  21982601.487 5
 125791891.141 7  98019648.381 4  23937395.981 4  23937397.232 4
 124696635.468 7  97166210.749 4  23728980.146 4  23728978.407 4
 105520718.237 8  82223937.448 7  20079918.454 7  20079917.744 7
 128732924.101 7 100311370.348 3  24497060.929 3  24497061.381 3
 18 01 01 03 01 00.0000000  0 10G07G08G10G15G16G18G21G26G27G30       0.000000000
 125374349.327 7  97694268.665 4  23857940.364 4  23857942.626 4
 113673780.398 8  88576981.998 6  21631396.588 6  21631395.524 6
 112509033.210 8  87669390.479 6  21409755.921 6  21409755.336 6
 130088384.082 7 101367549.954 3  24754990.692 3  24754992.466 3
 113334701.718 8  88312726.521 6  21566873.011 6  21566874.916 6
 115543731.862 8  90034070.567 5  21987235.044 5  21987237.500 5
 125873531.242 7  98083264.027 4  23952931.480 4  23952933.081 4
 124807701.914 7  97252756.029 4  23750115.065 4  23750113.529 4
 105518811.705 8  82222451.855 7  20079555.488 7  20079554.949 7
 128708025.105 7 100291968.515 3  24492322.302 3  24492322.983 3
 18 01 01 03 01 30.0000000  0 10G07G08G10G15G16G18G21G26G27G30       0.000000000
 125391578.818 7  97707694.217 4  23861219.337 4  23861221.466 4
 113604636.123 8  88523103.357 6  21618239.116 6  21618238.072 6
 112459586.006 8  87630860.215 6  21400346.469 6  21400345.858 6
 130089298.563 7 101368262.546 3  24755164.490 3  24755166.470 3
 113415544.585 8  88375720.963 6  21582257.570 6  21582258.640 6
 115568582.961 8  90053435.077 5  21991964.331 5  21991966.697 5
 125955257.057 7  98146946.470 4  23968483.309 4  23968485.019 4
 124918919.420 7  97339419.028 4  23771279.160 4  23771277.468 4
 105517325.635 8  82221293.874 7  20079272.685 7  20079272.536 7
 128683677.878 6 100272996.638 3  24487689.240 3  24487690.136 3
 18 01 01 03 02 00.0000000  0 10G07G08G10G15G16G18G21G26G27G30       0.000000000
 125409355.074 7  97721545.855 4  23864601.896 4  23864604.237 4
 113535752.324 8  88469427.654 6  21605130.684 6  21605129.625 6
 112410675.553 8  87592748.166 6  21391038.925 6  21391038.301 6
 130090781.061 7 101369417.731 3  24755446.498 3  24755448.690 3
 113496804.443 8  88439040.324 6  21597720.499 6  21597721.870 6
 115593922.139 7  90073179.874 5  21996786.497 5  21996788.585 5
 126037067.239 7  98210694.666 4  23984050.941 4  23984052.994 4
 125030285.470 7  97426197.759 4  23792470.926 4  23792469.727 4
 105516260.443 8  82220463.858 7  20079069.986 7  20079069.572 7
 128659883.017 7 100254455.133 3  24483161.123 3  24483162.224 3
 18 01 01 03 02 30.0000000  0 10G07G08G10G15G16G18G21G26G27G30       0.000000000
 125427676.894 7  97735822.579 4  23868087.933 4  23868090.515 4
 113467130.376 8  88415956.028 6  21592072.357 6  21592071.556 6
 112362303.453 8  87555055.653 6  21381834.113 6  21381833.554 6
 130092831.975 7 101371015.857 3  24755836.611 3  24755838.891 3
 113578478.861 8  88502682.713 6  21613262.303 6  21613263.909 6
 115619748.832 8  90093304.564 5  22001700.909 5  22001703.394 5
 126118960.660 7  98274507.715 4  23999634.716 4  23999636.570 4
 125141797.728 7  97513090.431 4  23813691.821 4  23813689.887 4
 105515616.575 8  82219962.142 7  20078947.432 7  20078947.114 7
 128636641.098 6 100236344.565 3  24478738.751 3  24478738.638 3
 18 01 01 03 03 00.0000000  0 10G07G08G10G15G16G18G21G26G27G30       0.000000000
 125446543.028 7  97750523.485 4  23871677.966 4  23871680.780 4
 113398771.502 8  88362689.384 6  21579064.197 6  21579062.745 6
 112314471.359 8  87517783.882 6  21372731.821 6  21372731.305 6
 130095451.576 7 101373057.148 3  24756335.295 3  24756337.706 3
 113660565.589 8  88566646.412 6  21628882.423 6  21628884.689 6
 115646062.102 7  90113808.421 5  22006708.397 5  22006710.326 5
 126200936.111 7  98338384.688 4  24015234.324 4  24015235.752 4
 125253453.768 7  97600095.103 4  23834939.178 4  23834937.630 4
 105515394.458 8  82219789.065 7  20078905.117 7  20078904.523 7
 128613952.797 6 100218665.367 3  24474421.502 3  24474421.290 3
 18 01 01 03 03 30.0000000  0 10G07G08G10G15G16G18G21G26G27G30       0.000000000
 125465952.350 7  97765647.650 4  23875371.562 4  23875373.849 4
 113330677.558 8  88309629.182 6  21566106.208 6  21566105.161 6
 112267180.877 8  87480934.172 6  21363732.698 6  21363732.181 6
 130098640.071 7 101375541.659 3  24756942.291 3  24756944.324 3
 113743062.873 8  88630930.004 6  21644581.606 6  21644583.541 6
 115672861.078 7  90134690.746 5  22011808.117 5  22011810.058 5
 126282992.953 7  98402325.060 4  24030849.369 4  24030850.905 4
 125365251.141 7  97687209.960 4  23856213.123 4  23856211.296 4
 105515594.546 8  82219944.970 7  20078943.301 7  20078942.948 7
 128591818.704 6 100201418.029 3  24470209.936 3  24470208.872 3
 18 01 01 03 04 00.0000000  0 10G07G08G10G15G16G18G21G26G27G30       0.000000000
 125485904.113 7  97781194.447 4  23879168.368 4  23879170.721 4
 113262849.772 8  88256776.348 6  21553198.548 6  21553198.360 6
 112220433.548 8  87444507.694 6  21354837.009 6  21354836.677 6
 130102397.831 7 101378469.760 3  24757656.714 3  24757659.324 3
 113825968.756 8  88695531.984 6  21660358.460 6  21660359.911 6
 115700144.487 8  90155950.557 5  22017000.154 5  22017002.007 5
 126365129.891 7  98466327.873 4  24046479.765 4  24046480.941 4
 125477187.444 7  97774433.018 4  23877514.301 4  23877512.645 4
 105516217.262 8  82220430.217 7  20079061.731 7  20079061.549 7
 128570239.478 6 100184603.028 3  24466103.403 3  24466102.624 3
 18 01 01 03 04 30.0000000  0 10G07G08G10G15G16G18G21G26G27G30       0.000000000
 125506396.720 7  97797162.713 4  23883068.258 4  23883070.381 4
 113195289.315 8  88204131.841 6  21540342.637 6  21540341.783 6
 112174230.955 8  87408505.684 6  21346044.963 6  21346044.406 6
 130106724.885 7 101381841.483 4  24758480.677 4  24758483.410 4
 113909281.247 8  88760450.819 6  21676212.299 6  21676213.448 6
 115727911.421 7  90177587.131 5  22022283.944 5  22022285.762 5
 126447346.037 7  98530392.406 4  24062124.702 4  24062126.270 4
 125589260.230 7  97861762.493 4  23898840.180 4  23898839.000 4
 105517263.017 8  82221245.085 7  20079260.710 7  20079260.516 7
 128549215.616 6 100168220.826 4  24462103.264 4  24462102.567 4
 18 01 01 03 05 00.0000000  0 10G07G08G10G15G16G18G21G26G27G30       0.000000000
 125527428.832 7  97813551.374 4  23887070.485 4  23887072.878 4
 113127997.719 8  88151696.841 6  21527537.444 6  21527536.645 6
 112128574.628 8  87372929.339 6  21337356.877 6  21337356.227 6
 130111621.689 7 101385657.177 3  24759412.818 3  24759414.837 3
 113992997.739 8  88825684.422 6  21692142.374 6  21692144.281 6
 115756160.523 7  90199599.433 5  22027659.071 5  22027661.126 5
 126529639.992 7  98594517.560 4  24077784.396 4  24077786.397 4
 125701467.211 7  97949196.488 4  23920193.457 4  23920191.537 4
 105518732.203 8  82222389.908 7  20079540.316 7  20079539.993 7
 128528747.607 6 100152271.730 4  24458208.181 4  24458207.499 4
 18 01 01 03 05 30.0000000  0 10G07G08G10G15G16G18G21G26G27G30       0.000000000
 125548999.831 7  97830359.970 4  23891174.916 4  23891177.425 4
 113060976.586 8  88099472.578 6  21514783.576 6  21514782.770 6
 112083466.066 8  87337779.818 6  21328773.110 6  21328772.449 6
 130117088.320 7 101389916.917 3  24760452.537 3  24760455.204 3
 114077116.248 8  88891231.317 6  21708149.731 6  21708151.885 6
 115784891.421 7  90221987.144 5  22033126.480 5  22033128.753 5
 126612010.664 7  98658702.484 4  24093458.671 4  24093461.017 4
 125813805.876 7  98036733.102 4  23941570.375 4  23941568.816 4
 105520625.230 8  82223865.001 7  20079900.594 7  20079900.160 7
 128508835.983 6 100136756.185 3  24454418.902 3  24454418.692 3
 18 01 01 03 06 00.0000000  0 10G07G08G10G15G16G18G21G26G27G30       0.000000000
 125571107.969 7  97847587.062 4  23895382.087 4  23895384.561 4
 112994227.470 8  88047460.293 6  21502082.178 6  21502080.937 6
 112038906.809 8  87303058.346 6  21320293.801 6  21320293.162 6
 130123124.622 7 101394620.536 3  24761600.430 3  24761603.657 3
 114161633.831 8  88957089.170 6  21724233.348 6  21724234.891 6
 115814102.838 7  90244749.297 5  22038684.943 5  22038687.681 5
 126694457.817 7  98722946.995 4  24109147.994 4  24109149.994 4
 125926273.850 7  98124370.512 4  23962971.632 4  23962970.778 4
 105522942.518 8  82225670.676 7  20080341.541 7  20080341.283 7
 128489481.219 6 100121674.550 3  24450736.100 3  24450735.418 3
 18 01 01 03 06 30.0000000  0 10G07G08G10G15G16G18G21G26G27G30       0.000000000
 125593752.311 7  97865232.010 4  23899691.747 4  23899693.294 4
 112927751.828 8  87995661.108 6  21489432.016 6  21489431.193 6
 111994898.353 8  87268766.042 6  21311919.265 6  21311918.410 6
 130129730.670 7 101399768.089 3  24762859.348 3  24762860.636 3
 114246549.289 7  89023257.043 6  21740392.075 6  21740393.515 6
 115843793.551 8  90267884.922 5  22044335.295 5  22044337.535 5
 126776979.882 7  98787249.897 4  24124851.537 4  24124853.291 4
 126038868.785 7  98212106.794 4  23984398.981 4  23984396.753 4
 105525684.452 8  82227807.237 7  20080863.210 7  20080862.971 7
 128470683.847 6 100107027.231 3  24447159.093 3  24447157.818 3
 18 01 01 03 07 00.0000000  0 10G07G08G10G15G16G18G21G26G27G30       0.000000000
 125616931.266 7  97883293.538 4  23904102.672 4  23904104.146 4
 112861550.845 8  87944075.939 6  21476834.141 6  21476833.209 6
 111951442.094 8  87234904.026 6  21303649.608 6  21303649.079 6
 130136906.942 7 101405360.017 3  24764224.516 3  24764226.484 3
 114331860.229 8  89089733.106 6  21756625.930 6  21756627.864 6
 115873962.750 7  90291393.395 5  22050076.151 5  22050078.281 5
 126859575.869 7  98851610.396 4  24140569.603 4  24140570.952 4
 126151588.139 7  98299940.036 4  24005848.263 4  24005846.266 4
 105528851.396 8  82230274.991 7  20081465.823 7  20081465.493 7
 128452444.249 6 100092814.567 3  24443687.888 3  24443687.333 3
 18 01 01 03 07 30.0000000  0 10G07G08G10G15G16G18G21G26G27G30       0.000000000
 125640643.573 7  97901770.643 4  23908614.481 4  23908616.944 4
 112795626.032 8  87892705.944 6  21464289.223 6  21464288.318 6
 111908539.493 8  87201473.447 6  21295485.458 6  21295485.292 6
 130144653.282 7 101411396.079 3  24765697.625 3  24765700.726 3
 114417564.502 8  89156515.661 6  21772934.528 6  21772936.747 6
 115904609.224 8  90315273.754 5  22055907.898 5  22055910.122 5
 126942244.652 7  98916027.613 4  24156301.393 4  24156302.265 4
 126264429.516 7  98387868.398 4  24027321.455 4  24027319.597 4
 105532443.745 8  82233074.224 7  20082149.463 7  20082148.958 7
 128434762.894 6 100079036.869 3  24440323.422 3  24440322.779 3
 18 01 01 03 08 00.0000000  0 10G07G08G10G15G16G18G21G26G27G30       0.000000000
 125664887.798 7  97920662.243 4  23913227.903 4  23913230.302 4
 112729978.722 8  87841552.216 6  21451797.048 6  21451796.288 6
 111866191.959 8  87168475.375 6  21287426.861 6  21287426.348 6
 130152969.636 7 101417876.346 3  24767280.915 3  24767283.122 3
 114503659.892 8  89223602.967 6  21789318.351 6  21789320.280 6
 115935731.701 7  90339525.039 5  22061830.491 5  22061832.733 5
 127024985.335 7  98980500.844 4  24172046.499 4  24172047.542 4
 126377390.589 7  98475889.988 4  24048817.341 4  24048815.927 4
 105536461.864 8  82236205.232 7  20082914.236 7  20082913.911 7
 128417640.038 6 100065694.414 3  24437064.736 3  24437064.231 3
 18 01 01 03 08 30.0000000  0 10G07G08G10G15G16G18G21G26G27G30       0.000000000
 125689662.846 7  97939967.462 4  23917942.393 4  23917944.598 4
 112664610.652 8  87790616.052 6  21439357.973 6  21439356.665 6
 111824400.918 8  87135910.938 6  21279474.607 6  21279474.072 6
 130161856.139 7 101424800.932 3  24768972.244 3  24768973.846 3
 114590143.445 7  89290992.738 6  21805775.742 6  21805777.441 6
 115967329.387 7  90364146.627 5  22067843.214 5  22067845.389 5
 127107796.652 7  99045029.130 4  24187804.895 4  24187806.236 4
 126490468.931 7  98564003.023 4  24070334.230 4  24070333.617 4
 105540906.127 8  82239668.282 7  20083760.097 7  20083759.661 7
 128401076.236 6 100052787.538 3  24433912.841 3  24433912.274 3
 18 01 01 03 09 00.0000000  0 10G07G08G10G15G16G18G21G26G27G30       0.000000000
 125714967.316 7  97959685.218 4  23922758.071 4  23922760.446 4
 112599522.980 8  87739898.395 6  21426971.945 6  21426970.899 6
 111783167.729 8  87103781.186 6  21271628.126 6  21271627.675 6
 130171312.652 7 101432169.620 3  24770771.169 3  24770773.935 3
 114677014.008 8  89358684.079 6  21822306.741 6  21822308.313 6
 115999401.121 7  90389137.591 5  22073946.388 5  22073948.585 5
 127190677.717 7  99109611.752 4  24203576.433 4  24203578.007 4
 126603662.103 7  98652205.462 4  24091875.136 4  24091873.601 4
 105545776.863 8  82243463.668 7  20084686.943 7  20084686.784 7
 128385071.697 6 100040316.469 4  24430867.635 4  24430866.792 4
 18 01 01 03 09 30.0000000  0 10G07G08G10G15G16G18G21G26G27G30       0.000000000
 125740799.629 7  97979814.322 4  23927673.453 4  23927676.063 4
 112534717.338 8  87689400.503 6  21414639.850 6  21414638.978 6
 111742493.731 8  87072087.163 6  21263887.868 6  21263887.390 6
 130181339.118 7 101439982.418 3  24772679.018 3  24772681.900 3
 114764269.121 8  89426675.074 6  21838910.949 6  21838912.728 6
 116031945.681 7  90414496.987 5  22080139.514 5  22080141.344 5
 127273628.052 7  99174248.360 4  24219361.766 4  24219362.995 4
 126716967.679 7  98740495.515 4  24113436.692 4  24113434.625 4
 105551074.422 8  82247591.636 7  20085694.878 7  20085694.406 7
 128369626.782 7 100028281.464 4  24427928.723 4  24427927.896 4
 18 01 01 03 10 00.0000000  0 10G07G08G10G15G16G18G21G26G27G30       0.000000000
 125767158.532 7  98000353.705 4  23932689.250 4  23932691.819 4
 112470195.325 8  87639123.612 6  21402361.852 6  21402360.764 6
 111702380.237 8  87040829.907 6  21256254.594 6  21256254.143 6
 130191935.573 7 101448239.389 3  24774696.457 3  24774697.929 3
 114851906.151 8  89494963.669 6  21855587.445 6  21855589.181 6
 116064961.634 8  90440223.699 5  22086421.853 5  22086424.438 5
 127356646.300 7  99238937.905 4  24235159.525 4  24235160.767 4
 126830383.306 7  98828871.337 4  24135018.164 4  24135017.095 4
 105556799.134 8  82252052.468 7  20086784.183 7  20086784.096 7
 128354741.827 7 100016682.772 4  24425095.714 4  24425095.673 4
 18 01 01 03 10 30.0000000  0 10G07G08G10G15G16G18G21G26G27G30       0.000000000
 125794042.116 7  98021301.990 4  23937804.893 4  23937807.573 4
 112405958.166 8  87589068.689 6  21390138.144 6  21390137.223 6
 111662828.608 8  87010010.473 6  21248728.115 6  21248727.547 6
 130203101.841 7 101456940.371 3  24776821.082 3  24776822.775 3
 114939923.071 7  89563548.265 6  21872336.519 6  21872338.788 6
 116098447.984 7  90466316.981 5  22092794.550 5  22092795.951 5
 127439731.254 7  99303679.424 4  24250969.631 4  24250971.120 4
 126943906.508 7  98917330.959 4  24156621.954 4  24156619.208 4
 105562951.407 8  82256846.426 7  20087954.908 7  20087954.589 7
 128340417.018 6 100005520.609 4  24422370.380 4  24422369.428 4
 18 01 01 03 11 00.0000000  0 10G07G08G10G15G16G18G21G26G27G30       0.000000000
 125821449.792 7  98042658.593 4  23943020.361 4  23943023.030 4
 112342007.233 8  87539236.797 6  21377968.762 6  21377967.728 6
 111623840.148 8  86979629.871 6  21241308.974 6  21241308.530 6
 130214837.962 7 101466085.361 3  24779053.530 3  24779056.352 3
 115028317.542 8  89632427.073 6  21889157.265 6  21889159.581 6
 116132403.659 8  90492775.949 5  22099256.067 5  22099257.928 5
 127522882.059 7  99368472.234 4  24266792.660 4  24266794.284 4
 127057534.953 7  99005872.584 4  24178244.476 4  24178242.466 4
 105569531.505 8  82261973.767 7  20089207.038 7  20089206.727 7
 128326652.747 7  99994795.181 4  24419750.890 4  24419750.523 4
 18 01 01 03 11 30.0000000  0 10G07G08G10G15G16G18G21G26G27G30       0.000000000
 125849379.671 7  98064422.119 4  23948335.752 4  23948337.523 4
 112278344.445 8  87489629.422 6  21365853.759 6  21365852.749 6
 111585416.109 8  86949689.060 6  21233997.146 6  21233996.803 6
 130227143.933 7 101475674.458 3  24781395.672 3  24781398.027 3
 115117086.511 7  89701597.682 6  21906049.871 6  21906051.779 6
 116166827.687 7  90519599.871 5  22105806.864 5  22105808.827 5
 127606098.197 7  99433315.979 4  24282628.330 4  24282629.784 4
 127171266.157 7  99094494.341 4  24199885.869 4  24199884.874 4
 105576539.732 8  82267434.734 7  20090540.811 7  20090540.403 7
 128313449.154 6  99984506.669 4  24417238.710 4  24417237.766 4
 18 01 01 03 12 00.0000000  0 10G07G08G10G15G16G18G21G26G27G30       0.000000000
 125877829.834 7  98086591.074 4  23953749.264 4  23953751.718 4
 112214970.615 8  87440247.233 6  21353793.882 6  21353793.052 6
 111547557.671 8  86920188.989 6  21226792.946 6  21226792.223 6
 130240019.388 6 101485707.286 3  24783845.621 3  24783847.479 3
 115206229.185 8  89771059.520 6  21923013.074 6  21923014.164 6
 116201718.584 7  90546787.587 5  22112446.124 5  22112448.243 5
 127689378.371 7  99498209.617 4  24298475.662 4  24298477.342 4
 127285097.724 7  99183194.251 4  24221548.259 4  24221545.243 4
 105583976.413 8  82273229.548 7  20091956.035 7  20091955.207 7
 128300806.440 6  99974655.210 4  24414832.450 4  24414831.624 4
 18 01 01 03 12 30.0000000  0 10G07G08G10G15G16G18G21G26G27G30       0.000000000
 125906799.046 7  98109164.468 4  23959262.488 4  23959264.678 4
 112151887.861 8  87391091.840 6  21341789.588 6  21341788.738 6
 111510266.141 8  86891130.666 6  21219696.419 6  21219696.120 6
 130253464.086 6 101496183.662 3  24786404.288 3  24786406.109 3
 115295742.699 8  89840810.282 6  21940047.250 6  21940048.550 6
 116237075.110 8  90574338.118 5  22119174.073 5  22119176.572 5
 127772721.253 7  99563152.117 4  24314335.139 4  24314337.107 4
 127399027.317 7  99271970.555 4  24243227.696 4  24243226.626 4
 105591841.855 8  82279358.452 7  20093452.580 7  20093452.375 7
 128288724.822 6  99965240.952 4  24412533.660 4  24412532.656 4
 18 01 01 03 13 00.0000000  0 10G07G08G10G15G16G18G21G26G27G30       0.000000000
 125936285.812 7  98132141.148 4  23964873.547 4  23964875.574 4
 112089097.191 8  87342164.048 6  21329841.359 6  21329840.118 6
 111473542.735 8  86862515.034 6  21212708.252 6  21212707.694 6
 130267477.501 7 101507103.195 3  24789070.112 3  24789073.296 3
 115385624.319 7  89910847.900 6  21957150.674 6  21957152.439 6
 116272896.225 7  90602250.687 5  22125990.606 5  22125993.001 5
 127856126.210 7  99628142.973 4  24330206.836 4  24330208.577 4
 127513052.428 7  99360821.298 4  24264926.218 4  24264924.398 4
 105600136.366 8  82285821.709 7  20095030.884 7  20095030.730 7
 128277204.446 6  99956264.038 4  24410341.103 4  24410340.342 4
 18 01 01 03 13 30.0000000  0 11G07G08G10G11G15G16G18G21G26G27G30    0.000000000
 125966288.669 7  98155520.011 4  23970582.763 4  23970584.907 4
 112026600.158 8  87293465.067 6  21317948.390 6  21317947.551 6
 111437388.588 8  86834342.984 6  21205828.294 6  21205828.044 6
 130478694.785 5 101671692.40111  24829266.874 1  24829268.311 1
 130282059.747 7 101518465.982 3  24791845.671 3  24791848.398 3
 115475871.771 8  89981170.600 5  21974324.115 5  21974326.347 5
 116309180.104 7  90630523.843 5  22132895.220 5  22132897.564 5
 127939592.222 7  99693181.410 4  24346090.210 4  24346091.633 4
 127627170.803 7  99449744.658 4  24286642.644 4  24286640.824 4
 105608860.198 8  82292619.499 7  20096691.130 7  20096690.939 7
 128266245.458 6  99947724.547 4  24408255.815 4  24408255.056 4
 18 01 01 03 14 00.0000000  0 11G07G08G10G11G15G16G18G21G26G27G30    0.000000000
 125996806.016 7  98179299.750 4  23976390.184 4  23976392.452 4
 111964398.262 8  87244996.053 6  21306111.965 6  21306111.141 6
 111401804.889 8  86806615.423 6  21199056.898 6  21199056.674 6
 130369290.330 5 101586442.159 1  24808448.282 1  24808451.763 1
 130297210.613 7 101530271.867 3  24794729.085 3  24794730.900 3
 115566483.522 8  90051777.152 5  21991567.103 5  21991568.855 5
 116345925.739 7  90659156.819 5  22139887.447 5  22139889.998 5
 128023118.476 7  99758266.766 4  24361984.968 4  24361986.153 4
 127741379.886 7  99538738.776 4  24308375.186 4  24308373.759 4
 105618013.681 8  82299752.070 7  20098433.055 7  20098432.755 7
 128255847.967 6  99939622.601 3  24406276.675 3  24406276.355 3
 18 01 01 03 14 30.0000000  0 11G07G08G10G11G15G16G18G21G26G27G30    0.000000000
 126027836.035 7  98203479.014 4  23982294.582 4  23982296.726 4
 111902492.957 8  87196758.168 6  21294331.703 6  21294330.829 6
 111366792.773 8  86779333.264 6  21192394.404 6  21192393.828 6
 130259939.109 5 101501233.417 1  24787639.390 1  24787640.697 1
 130312930.125 6 101542520.805 3  24797719.952 3  24797722.376 3
 115657456.778 7  90122665.401 5  22008878.574 5  22008880.374 5
 116383132.390 7  90688149.028 5  22146967.743 5  22146969.905 5
 128106703.840 7  99823398.203 4  24377890.900 4  24377891.478 4
 127855677.333 7  99627801.733 4  24330125.815 4  24330124.522 4
 105627597.037 8  82307219.626 7  20100256.735 7  20100255.907 7
 128246012.049 6  99931958.236 3  24404405.198 3  24404405.068 3
 18 01 01 03 15 00.0000000  0 11G07G08G10G11G15G16G18G21G26G27G30    0.000000000
 126059377.097 7  98228056.449 4  23988296.438 4  23988299.175 4
 111840885.790 8  87148752.587 6  21282608.213 6  21282607.309 6
 111332353.349 8  86752497.366 6  21185840.758 6  21185840.168 6
 130150642.635 5 101416067.370 1  24766841.247 1  24766843.049 1
 130329217.522 7 101555212.283 3  24800819.784 3  24800821.211 3
 115748788.658 7  90193833.088 5  22026258.707 5  22026260.551 5
 116420798.321 7  90717499.099 5  22154135.302 5  22154137.602 5
 128190347.604 7  99888575.155 4  24393807.596 4  24393809.027 4
 127970060.791 7  99716931.677 4  24351892.256 4  24351890.329 4
 105637610.560 8  82315022.372 7  20102162.138 7  20102161.894 7
 128236737.750 6  99924731.537 4  24402640.593 4  24402640.407 4
 18 01 01 03 15 30.0000000  0 11G07G08G10G11G15G16G18G21G26G27G30    0.000000000
 126091427.615 7  98253030.897 4  23994396.116 4  23994397.405 4
 111779578.261 8  87100980.496 6  21270941.687 6  21270940.418 6
 111298487.720 8  86726108.568 6  21179396.260 6  21179395.603 6
 130041401.765 6 101330944.646 1  24746053.367 1  24746055.510 1
 130346072.103 7 101568345.734 3  24804027.448 3  24804028.700 3
 115840477.463 7  90265278.890 5  22043706.075 5  22043708.486 5
 116458922.324 7  90747206.122 5  22161390.228 5  22161392.283 5
 128274048.752 7  99953796.827 4  24409735.064 4  24409736.721 4
 128084527.792 7  99806126.726 4  24373673.950 4  24373672.976 4
 105648054.523 8  82323160.515 7  20104149.430 7  20104149.412 7
 128228025.119 6  99917942.504 4  24400982.149 4  24400981.570 4
 18 01 01 03 16 00.0000000  0 11G07G08G10G11G15G16G18G21G26G27G30    0.000000000
 126123985.878 7  98278400.943 4  24000591.974 4  24000593.276 4
 111718571.881 8  87053443.073 6  21259332.640 6  21259331.538 6
 111265196.967 8  86700167.733 6  21173061.111 6  21173060.415 6
 129932217.443 6 101245866.044 2  24725275.986 2  24725277.726 2
 130363494.047 7 101581921.235 3  24807341.891 3  24807344.536 3
 115932521.141 7  90337001.236 5  22061221.997 5  22061223.368 5
 116497502.901 8  90777268.921 5  22168731.935 5  22168733.848 5
 128357806.371 7 100019062.502 4  24425673.568 4  24425675.587 4
 128199075.945 7  99895385.033 4  24395471.858 4  24395470.641 4
 105658929.148 8  82331634.252 7  20106218.763 7  20106218.235 7
 128219874.276 7  99911591.179 4  24399430.970 4  24399431.102 4
 18 01 01 03 16 30.0000000  0 11G07G08G10G11G15G16G18G21G26G27G30    0.000000000
 126157050.342 7  98304165.471 4  24006882.867 4  24006885.519 4
 111657867.976 8  87006141.319 7  21247780.820 7  21247779.992 7
 111232482.136 8  86674675.671 7  21166835.750 7  21166835.306 7
 129823091.043 6 101160832.488 2  24704509.892 2  24704511.284 2
 130381482.754 6 101595938.411 3  24810766.416 3  24810767.561 3
 116024916.967 8  90408997.978 5  22078804.149 5  22078805.880 5
 116536538.746 7  90807686.462 5  22176160.118 5  22176161.759 5
 128441619.380 7 100084371.335 4  24441622.531 4  24441624.431 4
 128313702.889 7  99984704.709 4  24417284.938 4  24417282.952 4
 105670234.662 8  82340443.745 7  20108370.253 7  20108369.880 7
 128212285.094 6  99905677.513 4  24397987.307 4  24397986.783 4
 18 01 01 03 17 00.0000000  0 11G07G08G10G11G15G16G18G21G26G27G30    0.000000000
 126190619.157 7  98330322.983 4  24013271.586 4  24013273.904 4
 111597468.154 8  86959076.524 7  21236287.154 7  21236286.396 7
 111200344.266 8  86649633.181 6  21160720.158 6  21160720.064 6
 129714023.406 6 101075844.830 2  24683754.901 2  24683757.273 2
 130400038.080 7 101610397.107 3  24814296.328 3  24814298.735 3
 116117662.430 7  90481267.175 5  22096452.945 5  22096454.831 5
 116576028.888 7  90838457.999 5  22183675.145 5  22183677.227 5
 128525487.127 7 100149722.789 4  24457582.083 4  24457583.663 4
 128428406.207 7 100074083.926 4  24439111.684 4  24439110.850 4
 105681971.357 8  82349589.211 7  20110603.837 7  20110603.161 7
 128205257.582 6  99900201.529 3  24396649.943 3  24396648.548 3
 18 01 01 03 17 30.0000000  0 11G07G08G10G11G15G16G18G21G26G27G30    0.000000000
 126224690.569 7  98356872.112 4  24019755.658 4  24019757.005 4
 111537373.916 8  86912249.849 6  21224851.842 6  21224850.626 6
 111168784.377 8  86625041.074 6  21154714.706 6  21154714.193 6
 129605016.198 6 100990904.152 2  24663011.907 2  24663013.538 2
 130419159.337 6 101625296.735 3  24817934.973 3  24817937.266 3
 116210755.323 7  90553807.096 5  22114167.618 5  22114169.543 5
 116615971.380 7  90869582.032 5  22191275.835 5  22191277.782 5
 128609408.475 7 100215116.059 4  24473551.231 4  24473553.526 4
 128543183.484 7 100163520.768 4  24460953.624 4  24460952.062 4
 105694139.404 8  82359070.818 7  20112919.453 7  20112918.913 7
 128198791.645 6  99895163.142 3  24395419.299 3  24395418.546 3
 18 01 01 03 18 00.0000000  0 11G07G08G10G11G15G16G18G21G26G27G30    0.000000000
 126259262.641 7  98383811.402 4  24026334.644 4  24026335.467 4
 111477586.492 8  86865662.252 6  21213474.688 6  21213473.387 6
 111137803.437 8  86600900.076 6  21148819.122 6  21148818.891 6
 129496069.973 6 100906011.014 2  24642279.881 2  24642280.904 2
 130438846.241 7 101640637.230 3  24821681.204 3  24821684.143 3
 116304192.894 7  90626615.563 5  22131948.497 5  22131950.428 5
 116656365.267 8  90901057.780 5  22198962.558 5  22198964.512 5
 128693382.643 7 100280550.478 4  24489530.896 4  24489533.754 4
 128658032.355 6 100253013.378 4  24482808.750 4  24482807.285 4
 105706739.051 8  82368888.710 7  20115316.896 7  20115316.095 7
 128192887.298 6  99890562.343 4  24394295.750 4  24394295.763 4
 18 01 01 03 18 30.0000000  0 11G07G08G10G11G15G16G18G21G26G27G30    0.000000000
 126294334.072 7  98411139.734 4  24033008.648 4  24033010.056 4
 111418107.611 8  86819315.082 7  21202156.220 7  21202155.102 7
 111107402.414 8  86577210.985 6  21143034.081 6  21143033.613 6
 129387186.026 6 100821166.448 3  24621560.100 3  24621561.401 3
 130459098.168 7 101656417.987 3  24825534.969 3  24825537.109 3
 116397973.404 8  90699691.291 5  22149794.511 5  22149796.168 5
 116697209.385 8  90932884.374 5  22206735.133 5  22206737.148 5
 128777408.524 7 100346025.174 4  24505520.645 4  24505522.527 4
 128772950.457 7 100342559.946 4  24504677.212 4  24504675.475 4
 105719770.452 8  82379043.052 7  20117796.388 7  20117796.175 7
 128187544.365 6  99886399.027 4  24393279.001 4  24393278.870 4
 18 01 01 03 19 00.0000000  0 11G07G08G10G11G15G16G18G21G26G27G30    0.000000000
 126329902.784 7  98438855.617 4  24039775.667 4  24039779.009 4
 111358938.658 8  86773209.407 7  21190896.710 7  21190895.881 7
 111077582.261 8  86553974.504 6  21137359.503 6  21137358.999 6
 129278365.761 6 100736371.471 3  24600852.100 3  24600853.315 3
 130479914.829 6 101672638.727 3  24829496.509 3  24829498.641 3
 116492094.203 8  90773032.165 5  22167705.031 5  22167707.039 5
 116738501.892 7  90965060.364 5  22214592.744 5  22214594.674 5
 128861485.286 7 100411539.495 4  24521520.360 4  24521521.514 4
 128887935.341 7 100432158.544 4  24526558.412 4  24526556.814 4
 105733233.887 8  82389534.026 7  20120358.400 7  20120358.268 7
 128182762.768 6  99882673.083 4  24392369.218 4  24392368.864 4
 18 01 01 03 19 30.0000000  0 11G07G08G10G11G15G16G18G21G26G27G30    0.000000000
 126365967.166 7  98466957.742 4  24046638.547 4  24046641.112 4
 111300080.957 8  86727346.276 7  21179696.355 7  21179695.354 7
 111048343.867 8  86531191.344 6  21131795.615 6  21131794.965 6
 129169609.929 6 100651626.692 2  24580156.385 2  24580157.884 2
 130501295.457 6 101689298.967 3  24833565.118 3  24833567.152 3
 116586552.765 7  90846636.241 5  22185679.787 5  22185681.673 5
 116780241.409 7  90997584.664 5  22222535.177 5  22222537.714 5
 128945612.284 7 100477092.988 4  24537529.570 4  24537531.077 4
 129002984.587 7 100521807.316 4  24548451.445 4  24548449.723 4
 105747129.513 8  82400361.787 7  20123002.783 7  20123002.299 7
 128178542.296 6  99879384.414 4  24391566.495 4  24391565.563 4
 18 01 01 03 20 00.0000000  0 11G07G08G10G11G15G16G18G21G26G27G30    0.000000000
 126402525.170 7  98495444.508 3  24053595.395 3  24053597.204 3
 111241536.524 8  86681727.225 7  21168555.531 7  21168554.935 7
 111019688.150 8  86508862.224 6  21126342.529 6  21126341.888 6
 129060919.619 6 100566933.028 2  24559472.810 2  24559474.547 2
 130523239.518 7 101706398.263 3  24837741.095 3  24837743.118 3
 116681346.823 7  90920501.723 5  22203718.800 5  22203720.303 5
 116822426.633 7  91030456.278 5  22230562.603 5  22230564.941 5
 129029788.423 7 100542684.779 4  24553547.794 4  24553549.337 4
 129118095.894 7 100611504.439 4  24570355.769 4  24570354.213 4
 105761457.515 8  82411526.453 7  20125729.485 7  20125729.195 7
 128174882.828 6  99876532.886 4  24390869.829 4  24390869.539 4
 18 01 01 03 20 30.0000000  0 11G07G08G10G11G15G16G18G21G26G27G30    0.000000000
 126439574.958 7  98524314.462 4  24060645.485 4  24060648.236 4
 111183306.226 8  86636352.974 6  21157474.717 6  21157473.894 6
 110991615.969 8  86486987.808 6  21121000.541 6  21120999.978 6
 128952296.306 6 100482291.538 3  24538802.466 3  24538804.788 3
 130545746.522 6 101723936.161 3  24842023.921 3  24842026.021 3
 116776474.196 8  90994626.936 5  22221820.880 5  22221822.644 5
 116865056.298 7  91063674.199 5  22238675.105 5  22238677.146 5
 129114012.998 7 100608314.282 4  24569575.641 4  24569576.969 4
 129233266.879 7 100701248.050 4  24592272.479 4  24592270.448 4
 105776218.020 8  82423028.155 7  20128538.402 7  20128537.728 7
 128171784.153 6  99874118.356 3  24390280.183 3  24390279.365 3
 18 01 01 03 21 00.0000000  0 11G07G08G10G11G15G16G18G21G26G27G30    0.000000000
 126477114.743 7  98553566.216 4  24067790.266 4  24067792.217 4
 111125391.646 8  86591224.732 7  21146454.564 7  21146453.074 7
 110964128.196 8  86465568.765 6  21115769.784 6  21115769.380 6
 128843740.726 7 100397702.825 3  24518145.046 3  24518146.422 3
 130568815.830 6 101741912.201 3  24846413.793 3  24846416.437 3
 116871932.123 8  91069009.722 5  22239985.890 5  22239987.492 5
 116908128.995 7  91097237.361 5  22246871.169 5  22246873.679 5
 129198284.869 7 100673980.669 4  24585611.697 4  24585613.566 4
 129348495.083 7 100791036.226 4  24614199.755 4  24614197.992 4
 105791411.279 8  82434867.059 7  20131429.516 7  20131429.330 7
 128169246.129 7  99872140.648 4  24389796.806 4  24389796.754 4
 18 01 01 03 21 30.0000000  0 11G07G08G10G11G15G16G18G21G26G27G30    0.000000000
 126515142.757 7  98583198.439 4  24075026.299 4  24075028.183 4
 111067794.737 8  86546344.028 7  21135493.803 7  21135492.507 7
 110937225.655 8  86444605.764 6  21110650.295 6  21110649.800 6
 128735254.276 6 100313167.991 3  24497501.000 3  24497502.959 3
 130592447.135 6 101760326.193 3  24850910.953 3  24850912.978 3
 116967718.003 7  91143648.075 5  22258212.961 5  22258215.358 5
 116951643.040 7  91131144.394 5  22255152.118 5  22255154.114 5
 129282603.358 7 100739683.350 4  24601656.796 4  24601658.451 4
 129463778.139 6 100880867.164 4  24636137.352 4  24636136.183 4
 105807037.442 8  82447043.286 7  20134402.970 7  20134402.508 7
 128167268.425 6  99870599.599 4  24389421.051 4  24389420.188 4
 18 01 01 03 22 00.0000000  0 11G07G08G10G11G15G16G18G21G26G27G30    0.000000000
 126553657.068 7  98613209.577 4  24082354.922 4  24082357.771 4
 111010516.568 8  86501711.690 7  21124594.169 7  21124593.378 7
 110910909.145 8  86424099.401 6  21105642.454 6  21105641.822 6
 128626838.099 6 100228687.871 3  24476869.152 3  24476871.771 3
 130616639.280 6 101779177.241 3  24855514.560 3  24855516.743 3
 117063829.827 8  91218540.402 5  22276502.948 5  22276504.894 5
 116995596.920 7  91165394.191 5  22263516.091 5  22263518.148 5
 129366967.622 6 100805421.734 3  24617710.730 3  24617712.180 3
 129579113.760 6 100970739.084 4  24658085.176 4  24658083.703 4
 105823096.643 8  82459556.929 7  20137458.900 7  20137458.634 7
 128165850.765 6  99869494.879 3  24389151.139 3  24389150.391 3
 18 01 01 03 22 30.0000000  0 11G07G08G10G11G15G16G18G21G26G27G30    0.000000000
 126592655.562 7  98643598.039 4  24089776.599 4  24089778.721 4
 110953558.764 8  86457328.977 7  21113755.242 7  21113754.610 7
 110885179.434 8  86404050.284 6  21100746.009 6  21100745.794 6
 128518493.213 6 100144263.358 3  24456252.209 3  24456253.576 3
 130641391.677 6 101798464.806 3  24860224.520 3  24860226.838 3
 117160265.441 7  91293685.021 5  22294854.174 5  22294855.310 5
 117039989.183 7  91199985.560 5  22271963.496 5  22271965.790 5
 129451376.646 6 100871194.989 3  24633773.004 3  24633775.439 3
 129694499.494 7 101060650.031 4  24680042.707 4  24680040.830 4
 105839588.987 8  82472408.103 7  20140597.326 7  20140596.935 7
 128164992.924 6  99868826.446 3  24388987.817 3  24388986.893 3
 18 01 01 03 23 00.0000000  0 11G07G08G10G11G15G16G18G21G26G27G30    0.000000000
 126632136.157 7  98674362.119 4  24097289.640 4  24097291.812 4
 110896922.581 8  86413196.905 7  21102977.872 7  21102976.886 7
 110860037.323 8  86384459.034 6  21095961.556 6  21095961.603 6
 128410221.002 7 100059895.453 3  24435649.503 3  24435650.933 3
 130666704.116 6 101818188.818 3  24865041.008 3  24865043.415 3
 117257021.986 8  91369079.741 5  22313266.264 5  22313267.813 5
 117084818.497 8  91234917.501 5  22280494.296 5  22280496.355 5
 129535829.568 6 100937002.447 3  24649843.805 3  24649845.862 3
 129809933.042 7 101150598.252 4  24702008.730 4  24702006.679 4
 105856514.628 8  82485596.919 7  20143818.383 7  20143817.645 7
 128164694.512 6  99868593.925 3  24388931.819 3  24388930.353 3
 18 01 01 03 23 30.0000000  0 11G07G08G10G11G15G16G18G21G26G27G30    0.000000000
 126672097.289 7  98705500.657 4  24104894.649 4  24104896.379 4
 110840609.706 8  86369316.740 6  21092261.713 6  21092260.918 6
 110835483.521 8  86365326.197 6  21091289.341 6  21091288.875 6
 128302022.535 7  99975584.960 3  24415058.566 3  24415061.166 3
 130692575.478 6 101838348.279 2  24869964.917 2  24869966.757 2
 117354096.757 7  91444722.398 5  22331738.608 5  22331739.988 5
 117130083.271 8  91270188.756 5  22289107.661 5  22289110.115 5
 129620325.699 6 101002843.581 3  24665922.915 3  24665924.625 3
 129925411.872 6 101240581.730 3  24723982.757 3  24723981.792 3
 105873873.740 8  82499123.497 7  20147121.844 7  20147120.936 7
 128164955.225 6  99868797.085 4  24388980.193 4  24388979.969 4
